City_ID,City,Lat,Lng,Max Temp,Humidity,Cloudiness,Wind Speed,Country,Date
0,dikson,73.5069,80.5464,1.76,83,100,18.77,RU,2023-02-08 12:38:23
1,kapaa,22.0752,-159.319,73.72,84,0,14.97,US,2023-02-08 12:38:24
2,umm lajj,25.0213,37.2685,69.04,42,100,19.42,SA,2023-02-08 12:38:24
3,mataura,-46.1927,168.8643,48.47,90,79,7.25,NZ,2023-02-08 12:38:25
4,coihaique,-45.5752,-72.0662,63.21,72,75,8.05,CL,2023-02-08 12:35:30
5,arraial do cabo,-22.9661,-42.0278,76.96,83,75,2.3,BR,2023-02-08 12:38:26
6,hermanus,-34.4187,19.2345,82.8,50,0,23.11,ZA,2023-02-08 12:38:27
7,portland,45.5234,-122.6762,42.04,91,20,8.05,US,2023-02-08 12:35:00
8,pangnirtung,66.1451,-65.7125,-22.0,63,0,2.3,CA,2023-02-08 12:38:28
9,cherskiy,68.75,161.3,-23.49,98,100,6.38,RU,2023-02-08 12:38:28
10,avarua,-21.2078,-159.775,75.25,94,53,2.3,CK,2023-02-08 12:38:29
11,vostok,46.4856,135.8833,-17.52,98,38,4.23,RU,2023-02-08 12:38:29
12,mananara,-16.1667,49.7667,82.47,72,93,6.33,MG,2023-02-08 12:38:30
13,tazovskiy,67.4667,78.7,4.73,83,100,19.62,RU,2023-02-08 12:38:31
14,saldanha,-33.0117,17.9442,93.25,69,36,15.7,ZA,2023-02-08 12:38:31
15,punta arenas,-53.15,-70.9167,60.82,76,75,6.91,CL,2023-02-08 12:37:31
16,thompson,55.7435,-97.8558,6.96,85,40,3.44,CA,2023-02-08 12:36:52
17,hilo,19.7297,-155.09,71.33,91,100,1.01,US,2023-02-08 12:38:33
18,manta,-0.95,-80.7333,76.78,83,75,2.3,EC,2023-02-08 12:38:34
19,ushuaia,-54.8,-68.3,60.46,55,40,6.91,AR,2023-02-08 12:38:35
20,nome,64.5011,-165.4064,-5.73,84,100,0.0,US,2023-02-08 12:36:58
21,ibotirama,-12.1853,-43.2206,87.57,41,85,1.48,BR,2023-02-08 12:38:36
22,calvinia,-31.4707,19.776,87.67,21,30,8.97,ZA,2023-02-08 12:38:36
23,waynesboro,38.0685,-78.8895,52.38,54,40,9.22,US,2023-02-08 12:35:13
24,north bend,43.4065,-124.2243,40.15,100,100,6.91,US,2023-02-08 12:38:37
25,mahebourg,-20.4081,57.7,84.49,70,75,9.22,MU,2023-02-08 12:38:38
26,saint-georges,12.0564,-61.7485,78.48,83,20,14.97,GD,2023-02-08 12:38:38
27,vokhma,58.9303,46.7586,26.01,96,100,8.57,RU,2023-02-08 12:38:39
28,souillac,-20.5167,57.5167,84.58,70,75,9.22,MU,2023-02-08 12:38:39
29,port hardy,50.6996,-127.4199,35.78,93,75,6.91,CA,2023-02-08 12:38:40
30,shimoda,34.6667,138.95,44.1,81,80,11.65,JP,2023-02-08 12:38:40
31,inuvik,68.3499,-133.7218,-17.39,76,100,2.3,CA,2023-02-08 12:38:41
32,bethel,41.3712,-73.414,36.66,81,0,0.0,US,2023-02-08 12:35:03
33,east london,-33.0153,27.9116,70.74,94,75,6.91,ZA,2023-02-08 12:38:41
34,qasigiannguit,68.8193,-51.1922,-12.75,87,15,5.73,GL,2023-02-08 12:38:42
35,muisne,0.6,-80.0333,78.13,85,93,7.18,EC,2023-02-08 12:38:42
36,jamestown,42.097,-79.2353,35.19,93,100,8.05,US,2023-02-08 12:31:21
37,port alfred,-33.5906,26.891,74.17,74,100,3.0,ZA,2023-02-08 12:38:42
38,berlevag,70.8578,29.0864,37.4,64,0,42.57,NO,2023-02-08 12:38:43
39,moerai,-22.4333,-151.3333,78.66,77,12,13.94,PF,2023-02-08 12:38:44
40,rikitea,-23.1203,-134.9692,78.94,75,5,12.66,PF,2023-02-08 12:38:44
41,padang,-0.9492,100.3543,82.45,85,65,3.71,ID,2023-02-08 12:37:27
42,vaini,-21.2,-175.2,75.36,100,75,5.75,TO,2023-02-08 12:38:45
43,atuona,-9.8,-139.0333,78.58,77,1,15.48,PF,2023-02-08 12:38:45
44,carnarvon,-24.8667,113.6333,77.81,79,5,24.76,AU,2023-02-08 12:38:46
45,kodiak,57.79,-152.4072,17.11,73,0,6.91,US,2023-02-08 12:38:46
46,palu,-0.8917,119.8707,75.58,92,100,1.23,ID,2023-02-08 12:38:47
47,ilam,26.9167,87.9167,56.88,61,92,1.39,NP,2023-02-08 12:35:12
48,barrow,71.2906,-156.7887,-16.58,69,100,11.5,US,2023-02-08 12:38:47
49,tongchuan,35.0806,109.0897,32.81,96,100,4.56,CN,2023-02-08 12:38:48
50,hasaki,35.7333,140.8333,43.21,75,100,13.67,JP,2023-02-08 12:38:48
51,tulun,54.5611,100.5792,-2.69,100,69,2.98,RU,2023-02-08 12:38:49
52,san joaquin,37.9333,-121.3011,42.12,91,0,0.0,US,2023-02-08 12:38:49
53,new norfolk,-42.7826,147.0587,56.7,62,100,1.01,AU,2023-02-08 12:38:50
54,port macquarie,-31.4333,152.9167,69.89,77,26,6.17,AU,2023-02-08 12:38:50
55,manokwari,-0.8667,134.0833,78.53,85,100,12.57,ID,2023-02-08 12:38:51
56,upernavik,72.7868,-56.1549,-23.78,91,37,2.82,GL,2023-02-08 12:38:51
57,yorkton,51.2167,-102.4677,21.04,93,75,0.0,CA,2023-02-08 12:38:51
58,qaanaaq,77.484,-69.3632,-25.35,65,17,5.64,GL,2023-02-08 12:38:52
59,hofn,64.2539,-15.2082,30.22,55,20,16.11,IS,2023-02-08 12:38:52
60,birao,10.2849,22.7882,93.99,7,11,12.93,CF,2023-02-08 12:38:53
61,puerto ayora,-0.7393,-90.3518,74.55,97,69,1.01,EC,2023-02-08 12:38:53
62,papetoai,-17.4961,-149.8729,76.55,66,12,6.82,PF,2023-02-08 12:38:54
63,starosubkhangulovo,53.1031,57.4423,12.52,94,8,3.0,RU,2023-02-08 12:38:55
64,ilulissat,69.2167,-51.1,-12.98,58,0,5.75,GL,2023-02-08 12:38:55
65,cockburn town,21.4612,-71.1419,77.29,70,5,21.39,TC,2023-02-08 12:36:46
66,tuktoyaktuk,69.4541,-133.0374,-20.22,98,97,5.06,CA,2023-02-08 12:38:56
67,ust-maya,60.4167,134.5333,-36.35,100,100,1.32,RU,2023-02-08 12:38:56
68,busselton,-33.65,115.3333,65.12,79,0,17.45,AU,2023-02-08 12:38:57
69,sinop,41.7711,34.8709,30.63,97,100,12.57,TR,2023-02-08 12:38:57
70,marshall,34.3834,-86.3333,59.31,89,100,0.0,US,2023-02-08 12:34:51
71,hammerfest,70.6634,23.6821,39.65,65,20,17.27,NO,2023-02-08 12:38:58
72,pevek,69.7008,170.3133,-19.44,97,100,5.7,RU,2023-02-08 12:38:59
73,acapulco,16.8634,-99.8901,73.22,83,40,3.44,MX,2023-02-08 12:33:59
74,marawi,7.9986,124.2928,68.0,96,100,2.1,PH,2023-02-08 12:39:00
75,iralaya,15.0,-83.2333,77.59,75,0,11.72,HN,2023-02-08 12:39:00
76,haines city,28.1142,-81.6179,58.95,89,0,0.0,US,2023-02-08 12:30:40
77,bayonet point,28.3267,-82.6834,64.02,91,6,8.66,US,2023-02-08 12:39:01
78,tommot,58.9564,126.2925,-20.61,98,100,2.86,RU,2023-02-08 12:39:01
79,ponta do sol,32.6667,-17.1,65.12,68,59,2.68,PT,2023-02-08 12:39:02
80,taoudenni,22.6783,-3.9836,77.4,11,25,12.1,ML,2023-02-08 12:39:03
81,castro,-24.7911,-50.0119,73.0,68,0,3.06,BR,2023-02-08 12:39:03
82,agadir,30.4202,-9.5982,64.85,46,0,6.46,MA,2023-02-08 12:39:04
83,alofi,-19.0595,-169.9187,76.89,100,95,3.44,NU,2023-02-08 12:39:04
84,cayenne,4.9333,-52.3333,80.64,83,40,10.36,GF,2023-02-08 12:39:05
85,luanda,-8.8368,13.2343,86.0,62,40,10.36,AO,2023-02-08 12:35:36
86,maceio,-9.6658,-35.7353,81.84,69,75,6.91,BR,2023-02-08 12:35:53
87,eureka,40.8021,-124.1637,46.26,95,23,1.01,US,2023-02-08 12:35:46
88,nikolskoye,59.7035,30.7861,33.69,95,100,6.98,RU,2023-02-08 12:39:06
89,san juan,-31.5375,-68.5364,83.86,35,3,17.54,AR,2023-02-08 12:39:07
90,cabo san lucas,22.8909,-109.9124,67.51,41,90,0.54,MX,2023-02-08 12:29:53
91,vestmannaeyjar,63.4427,-20.2734,29.39,80,40,32.21,IS,2023-02-08 12:39:08
92,basco,20.4487,121.9702,76.98,77,60,23.0,PH,2023-02-08 12:39:09
93,bredasdorp,-34.5322,20.0403,77.79,47,2,18.9,ZA,2023-02-08 12:39:10
94,georgetown,5.4112,100.3354,84.15,74,20,8.05,MY,2023-02-08 12:39:10
95,enshi,30.3,109.4833,45.91,92,100,2.28,CN,2023-02-08 12:39:11
96,saskylakh,71.9167,114.0833,-34.92,100,96,4.68,RU,2023-02-08 12:39:11
97,altay,47.8667,88.1167,14.88,83,70,6.78,CN,2023-02-08 12:39:12
98,asau,46.4333,26.4,24.28,78,80,7.45,RO,2023-02-08 12:39:13
99,kruisfontein,-34.0033,24.7314,72.88,62,100,13.27,ZA,2023-02-08 12:39:14
100,hobart,-42.8794,147.3294,57.06,72,75,3.44,AU,2023-02-08 12:37:10
101,neiafu,-18.65,-173.9833,77.68,94,75,0.0,TO,2023-02-08 12:39:16
102,rajshahi,24.3667,88.6,74.01,32,0,4.61,BD,2023-02-08 12:35:32
103,bambous virieux,-20.3428,57.7575,84.45,70,75,9.22,MU,2023-02-08 12:39:18
104,ribeira grande,38.5167,-28.7,56.77,58,75,10.36,PT,2023-02-08 12:39:18
105,bubaque,11.2833,-15.8333,76.57,48,0,2.71,GW,2023-02-08 12:39:19
106,fort-shevchenko,44.5086,50.263,30.18,90,100,23.89,KZ,2023-02-08 12:39:19
107,jumla,29.2747,82.1838,39.61,57,0,3.51,NP,2023-02-08 12:39:20
108,fougamou,-1.2154,10.5838,94.91,44,99,1.03,GA,2023-02-08 12:39:20
109,rio gallegos,-51.6226,-69.2181,66.25,42,0,19.57,AR,2023-02-08 12:39:21
110,teguldet,57.3064,88.1667,7.39,96,95,5.84,RU,2023-02-08 12:39:21
111,sisimiut,66.9395,-53.6735,-10.77,90,12,8.66,GL,2023-02-08 12:39:23
112,victoria,22.2855,114.1577,68.38,84,100,10.0,HK,2023-02-08 12:38:13
113,namatanai,-3.6667,152.4333,81.59,72,100,1.68,PG,2023-02-08 12:39:24
114,tiksi,71.6872,128.8694,-39.35,98,54,6.76,RU,2023-02-08 12:39:24
115,lasa,46.6166,10.7002,38.28,70,32,3.98,IT,2023-02-08 12:39:25
116,illela,13.7292,5.2975,95.86,7,94,18.57,NG,2023-02-08 12:39:26
117,butaritari,3.0707,172.7902,80.58,83,47,21.23,KI,2023-02-08 12:39:26
118,kamaishi,39.2667,141.8833,30.47,78,10,5.14,JP,2023-02-08 12:39:27
119,harper,4.375,-7.7169,82.72,75,68,5.64,LR,2023-02-08 12:39:28
120,necochea,-38.5473,-58.7368,78.4,55,45,11.01,AR,2023-02-08 12:39:28
121,acarau,-2.8856,-40.12,82.78,70,100,12.82,BR,2023-02-08 12:38:42
122,constitucion,-35.3333,-72.4167,68.94,52,0,3.2,CL,2023-02-08 12:39:29
123,sao filipe,14.8961,-24.4956,69.82,67,56,9.44,CV,2023-02-08 12:39:30
124,kumluca,36.3703,30.2869,48.47,35,0,5.68,TR,2023-02-08 12:39:30
125,carbonia,39.1672,8.5222,54.01,46,71,17.52,IT,2023-02-08 12:39:31
126,canaries,28.0,-15.5,61.39,55,75,10.36,ES,2023-02-08 12:39:32
127,tilichiki,60.4667,166.1,-24.0,90,40,11.05,RU,2023-02-08 12:39:32
128,ola,59.5833,151.2833,-19.48,85,32,8.61,RU,2023-02-08 12:39:32
129,brae,60.3964,-1.353,46.33,72,100,38.41,GB,2023-02-08 12:39:33
130,fortuna,40.5982,-124.1573,45.99,96,100,1.99,US,2023-02-08 12:32:23
131,bengkulu,-3.8004,102.2655,78.93,81,79,5.79,ID,2023-02-08 12:39:33
132,clyde river,70.4692,-68.5914,-30.77,68,0,3.44,CA,2023-02-08 12:39:34
133,arrifes,37.7667,-25.7,55.65,77,75,10.36,PT,2023-02-08 12:39:35
134,galdar,28.147,-15.6502,67.35,60,56,4.43,ES,2023-02-08 12:39:36
135,deniliquin,-35.5333,144.9667,73.83,41,2,9.91,AU,2023-02-08 12:39:37
136,farmington,36.7281,-108.2187,18.28,79,0,4.61,US,2023-02-08 12:35:54
137,southbridge,42.0751,-72.0334,36.81,94,12,1.99,US,2023-02-08 12:39:38
138,lewistown,40.5992,-77.5714,42.21,75,75,8.05,US,2023-02-08 12:37:35
139,vaitape,-16.5167,-151.75,79.88,76,36,8.59,PF,2023-02-08 12:39:38
140,bluff,-46.6,168.3333,48.79,63,61,25.72,NZ,2023-02-08 12:39:39
141,filingue,14.3521,3.3168,96.35,7,32,16.55,NE,2023-02-08 12:39:41
142,albany,42.6001,-73.9662,38.57,78,66,1.99,US,2023-02-08 12:36:24
143,los llanos de aridane,28.6585,-17.9182,62.35,69,75,4.0,ES,2023-02-08 12:39:41
144,esperance,-33.8667,121.9,64.62,86,26,8.9,AU,2023-02-08 12:39:43
145,gamba,-2.65,10.0,86.47,65,77,9.93,GA,2023-02-08 12:39:43
146,faanui,-16.4833,-151.75,79.92,76,35,8.75,PF,2023-02-08 12:39:44
147,sola,-13.8833,167.55,78.78,80,100,2.91,VU,2023-02-08 12:39:45
148,russell,32.3502,-85.1999,58.23,93,75,0.0,US,2023-02-08 12:36:30
149,kavaratti,10.5669,72.642,80.15,71,53,6.44,IN,2023-02-08 12:39:46
150,saint anthony,45.0205,-93.218,26.15,90,0,5.75,US,2023-02-08 12:39:46
151,dunedin,-45.8742,170.5036,49.5,68,39,16.53,NZ,2023-02-08 12:36:03
152,corinto,37.9407,22.9573,43.9,63,71,10.33,GR,2023-02-08 12:38:22
153,kavieng,-2.5744,150.7967,80.22,82,100,11.77,PG,2023-02-08 12:39:47
154,torbay,47.6666,-52.7314,31.26,94,100,21.85,CA,2023-02-08 12:35:58
155,dingle,10.9995,122.6711,73.83,89,97,8.86,PH,2023-02-08 12:39:50
156,galesong,-5.3166,119.3661,78.82,83,100,7.16,ID,2023-02-08 12:39:53
157,boone,39.0334,-92.3335,40.05,67,100,5.7,US,2023-02-08 12:39:53
158,oranjestad,12.524,-70.027,78.91,81,75,13.8,AW,2023-02-08 12:36:20
159,port elizabeth,-33.918,25.5701,75.09,69,100,13.8,ZA,2023-02-08 12:39:54
160,flin flon,54.7682,-101.865,4.84,85,0,2.3,CA,2023-02-08 12:39:54
161,egvekinot,66.3167,-179.1667,-20.18,89,100,7.52,RU,2023-02-08 12:39:55
162,hithadhoo,-0.6,73.0833,82.17,71,27,7.96,MV,2023-02-08 12:39:55
163,porbandar,21.6422,69.6093,78.69,46,1,9.6,IN,2023-02-08 12:39:56
164,half moon bay,37.4636,-122.4286,49.98,87,0,3.44,US,2023-02-08 12:38:40
165,tuatapere,-46.1333,167.6833,47.17,80,94,12.03,NZ,2023-02-08 12:39:56
166,saint-philippe,-21.3585,55.7679,85.59,79,41,12.84,RE,2023-02-08 12:39:57
167,namibe,-15.1961,12.1522,78.06,61,100,12.3,AO,2023-02-08 12:39:57
168,te anau,-45.4167,167.7167,45.37,77,81,3.06,NZ,2023-02-08 12:39:58
169,luderitz,-26.6481,15.1594,73.69,65,0,25.1,NA,2023-02-08 12:39:58
170,verkh-chebula,56.0308,87.6218,7.84,93,97,7.45,RU,2023-02-08 12:39:59
171,carlsbad,33.1581,-117.3506,58.46,49,0,0.0,US,2023-02-08 12:37:51
172,farafangana,-22.8167,47.8333,79.41,82,100,9.01,MG,2023-02-08 12:40:00
173,hailar,49.2,119.7,-19.79,100,66,4.97,CN,2023-02-08 12:40:00
174,richmond,37.5538,-77.4603,50.05,64,75,6.91,US,2023-02-08 12:35:10
175,stodolishche,54.1859,32.6492,21.9,91,90,8.21,RU,2023-02-08 12:40:02
176,guerrero negro,27.9769,-114.0611,53.31,44,0,1.81,MX,2023-02-08 12:40:03
177,vila franca do campo,37.7167,-25.4333,57.61,68,69,11.27,PT,2023-02-08 12:35:46
178,quelimane,-17.8786,36.8883,84.15,79,75,8.05,MZ,2023-02-08 12:40:11
179,yellowknife,62.456,-114.3525,-15.45,83,40,3.44,CA,2023-02-08 12:35:52
180,tucumcari,35.1717,-103.725,26.44,100,0,9.22,US,2023-02-08 12:40:17
181,cape town,-33.9258,18.4232,84.61,54,0,18.41,ZA,2023-02-08 12:40:27
182,vanino,49.0869,140.2543,-8.43,99,100,3.0,RU,2023-02-08 12:40:28
183,haines junction,60.7522,-137.5108,1.35,85,97,2.3,CA,2023-02-08 12:40:29
184,caravelas,-17.7125,-39.2481,86.14,51,28,8.34,BR,2023-02-08 12:40:29
185,meulaboh,4.1363,96.1285,76.66,92,100,7.29,ID,2023-02-08 12:40:41
186,bantry,51.6833,-9.45,49.78,81,100,14.41,IE,2023-02-08 12:40:41
187,raudeberg,61.9875,5.1352,48.96,68,100,46.19,NO,2023-02-08 12:40:42
188,bathsheba,13.2167,-59.5167,77.61,83,75,27.63,BB,2023-02-08 12:40:42
189,vao,-22.6667,167.4833,79.9,75,100,14.92,NC,2023-02-08 12:40:45
190,saint-louis,16.3333,-15.0,80.24,10,83,13.42,SN,2023-02-08 12:40:46
191,jiaocheng,24.6774,116.1389,66.69,90,100,1.52,CN,2023-02-08 12:40:47
192,adet,11.2644,37.4888,80.35,10,8,6.71,ET,2023-02-08 12:40:47
193,isla vista,34.4133,-119.861,58.44,64,0,0.0,US,2023-02-08 12:40:48
194,cabedelo,-6.9811,-34.8339,83.07,68,96,10.89,BR,2023-02-08 12:40:50
195,chuy,-33.6971,-53.4616,81.0,54,74,9.15,UY,2023-02-08 12:40:50
196,charleston,32.7766,-79.9309,52.02,95,0,0.0,US,2023-02-08 12:35:26
197,bani,18.2833,-70.3333,77.86,65,3,14.67,DO,2023-02-08 12:40:52
198,yinchuan,38.4681,106.2731,30.02,93,100,2.35,CN,2023-02-08 12:40:52
199,saint george,37.1041,-113.5841,34.39,69,0,5.75,US,2023-02-08 12:40:53
200,richards bay,-28.783,32.0377,76.84,91,91,12.41,ZA,2023-02-08 12:40:54
201,koumac,-20.5667,164.2833,79.63,86,100,5.53,NC,2023-02-08 12:40:54
202,porto torres,40.835,8.3972,53.78,62,82,16.28,IT,2023-02-08 12:40:55
203,port-cartier,50.0334,-66.8654,24.91,95,91,6.06,CA,2023-02-08 12:40:55
204,tigil,57.8,158.6667,-7.1,97,100,8.84,RU,2023-02-08 12:40:56
205,codrington,-38.2667,141.9667,58.35,94,100,6.91,AU,2023-02-08 12:40:56
206,katangli,51.7102,143.2326,-12.62,95,100,11.39,RU,2023-02-08 12:40:56
207,aklavik,68.2191,-135.0107,-30.48,98,36,2.37,CA,2023-02-08 12:40:57
208,sinnamary,5.3833,-52.95,78.13,88,100,11.5,GF,2023-02-08 12:40:57
209,teya,60.3778,92.6267,2.86,98,100,3.85,RU,2023-02-08 12:40:58
210,yumen,40.2833,97.2,27.63,53,0,11.1,CN,2023-02-08 12:40:59
211,lima,-12.0432,-77.0282,74.89,84,20,3.44,PE,2023-02-08 12:38:59
212,lavrentiya,65.5833,-171.0,-11.76,89,100,3.6,RU,2023-02-08 12:41:00
213,dzhalil,55.0239,52.7358,10.36,93,90,13.56,RU,2023-02-08 12:41:01
214,conakry,9.538,-13.6773,84.27,65,3,9.22,GN,2023-02-08 12:41:01
215,havre-saint-pierre,50.2334,-63.5986,24.8,93,100,11.5,CA,2023-02-08 12:41:02
216,zasechnoye,53.1092,45.0764,14.61,95,47,5.03,RU,2023-02-08 12:41:04
217,vagay,57.9375,69.0217,1.44,99,95,5.59,RU,2023-02-08 12:41:05
218,pirgos,35.1167,25.7178,51.62,55,53,19.53,GR,2023-02-08 12:41:05
219,wageningen,51.9667,5.6667,45.34,42,5,9.22,NL,2023-02-08 12:41:05
220,talnakh,69.4865,88.3972,-11.79,97,100,8.5,RU,2023-02-08 12:41:06
221,flinders,-34.5833,150.8552,69.19,92,90,7.0,AU,2023-02-08 12:41:06
222,port blair,11.6667,92.75,82.44,65,40,8.05,IN,2023-02-08 12:41:07
223,yerbogachen,61.2767,108.0108,-8.18,99,100,3.83,RU,2023-02-08 12:41:07
224,le moule,16.3332,-61.3473,77.04,75,1,18.07,GP,2023-02-08 12:41:08
225,aketi,2.7388,23.7833,104.95,8,8,3.06,CD,2023-02-08 12:41:09
226,chimbote,-9.0853,-78.5783,71.8,81,78,3.58,PE,2023-02-08 12:37:02
227,mar del plata,-38.0023,-57.5575,77.09,83,100,6.91,AR,2023-02-08 12:41:10
228,ulladulla,-35.35,150.4667,66.29,90,96,5.77,AU,2023-02-08 12:41:10
229,virginia beach,36.8529,-75.978,51.03,71,75,9.22,US,2023-02-08 12:34:08
230,mandera,3.9366,41.867,98.65,17,0,15.99,KE,2023-02-08 12:41:11
231,belmonte,-15.8631,-38.8828,84.47,56,94,7.45,BR,2023-02-08 12:41:11
232,leningradskiy,69.3833,178.4167,-19.39,92,100,4.74,RU,2023-02-08 12:41:12
233,bien hoa,10.95,106.8167,84.18,63,39,11.05,VN,2023-02-08 12:41:12
234,antsohihy,-14.8796,47.9875,85.91,73,80,1.21,MG,2023-02-08 12:41:13
235,yulara,-25.2406,130.9889,88.29,15,0,9.51,AU,2023-02-08 12:41:13
236,kashi,39.4547,75.9797,40.21,41,40,2.24,CN,2023-02-08 12:41:14
237,ormara,25.2088,64.6357,72.81,66,87,9.91,PK,2023-02-08 12:41:06
238,tahta,26.7693,31.5021,63.77,28,100,11.43,EG,2023-02-08 12:41:15
239,kalaleh,37.3807,55.4916,46.0,93,100,6.91,IR,2023-02-08 12:41:16
240,tamandare,-8.7597,-35.1047,81.57,68,100,8.32,BR,2023-02-08 12:41:16
241,ha tinh,18.3333,105.9,71.74,97,41,5.61,VN,2023-02-08 12:41:17
242,norman wells,65.282,-126.8329,-25.56,75,40,2.3,CA,2023-02-08 12:41:18
243,ixtapa,20.7,-105.2,65.23,94,75,0.0,MX,2023-02-08 12:41:18
244,banda aceh,5.5577,95.3222,79.27,83,100,10.83,ID,2023-02-08 12:41:19
245,husavik,66.0449,-17.3389,20.82,70,79,14.47,IS,2023-02-08 12:41:20
246,chokurdakh,70.6333,147.9167,-27.87,98,100,5.37,RU,2023-02-08 12:41:22
247,broken hill,-31.95,141.4333,79.41,19,0,8.75,AU,2023-02-08 12:41:23
248,nuevo casas grandes,30.4167,-107.9167,32.76,61,0,2.13,MX,2023-02-08 12:41:23
249,zhigansk,66.7697,123.3711,-43.65,98,99,6.55,RU,2023-02-08 12:41:24
250,moroto,2.5345,34.6666,86.27,21,13,20.13,UG,2023-02-08 12:41:25
251,shaowu,27.3409,117.4831,57.42,100,100,2.28,CN,2023-02-08 12:41:26
252,katsuura,35.1333,140.3,47.8,77,88,15.86,JP,2023-02-08 12:41:26
253,longyearbyen,78.2186,15.6401,28.24,93,100,20.71,SJ,2023-02-08 12:41:26
254,bolivar,37.6145,-93.4105,41.76,94,100,9.06,US,2023-02-08 12:41:27
255,ostrovnoy,68.0531,39.5131,28.06,72,7,25.64,RU,2023-02-08 12:41:27
256,kinarut,5.8231,116.0466,78.82,89,20,0.0,MY,2023-02-08 12:41:28
257,san andres,12.5847,-81.7006,80.62,74,20,16.11,CO,2023-02-08 12:41:28
258,upington,-28.4478,21.2561,84.58,37,40,5.75,ZA,2023-02-08 12:41:29
259,airai,-8.9266,125.4092,61.75,96,100,0.94,TL,2023-02-08 12:41:29
260,berck,50.4,1.6,46.51,52,0,5.75,FR,2023-02-08 12:41:30
261,canton,23.1167,113.25,68.88,69,100,6.02,CN,2023-02-08 12:40:57
262,morehead,37.2711,-87.1764,47.98,90,100,3.44,US,2023-02-08 12:41:30
263,comodoro rivadavia,-45.8667,-67.5,73.26,43,0,13.8,AR,2023-02-08 12:41:31
264,sambava,-14.2667,50.1667,80.47,84,100,10.42,MG,2023-02-08 12:41:31
265,plouzane,48.3833,-4.6167,50.32,52,0,4.61,FR,2023-02-08 12:41:32
266,lulea,65.5842,22.1547,33.87,86,0,16.11,SE,2023-02-08 12:41:33
267,tasiilaq,65.6145,-37.6368,-0.24,52,0,11.01,GL,2023-02-08 12:41:33
268,reconquista,-29.15,-59.65,96.8,22,1,7.78,AR,2023-02-08 12:41:34
269,severo-kurilsk,50.6789,156.125,22.77,74,99,14.03,RU,2023-02-08 12:41:34
270,kaitangata,-46.2817,169.8464,48.65,68,26,13.56,NZ,2023-02-08 12:41:35
271,taikang,46.8333,124.4167,-1.05,95,7,3.38,CN,2023-02-08 12:41:35
272,bud,39.447,-86.1758,34.83,83,100,3.4,US,2023-02-08 12:41:36
273,almaznyy,48.0448,40.045,20.93,83,8,15.7,RU,2023-02-08 12:41:36
274,marsh harbour,26.5412,-77.0636,72.39,61,33,15.19,BS,2023-02-08 12:41:36
275,sao joao da barra,-21.6403,-41.0511,78.89,87,100,4.03,BR,2023-02-08 12:39:50
276,garowe,8.4054,48.4845,88.48,27,6,12.06,SO,2023-02-08 12:41:37
277,pisco,-13.7,-76.2167,73.45,83,0,1.14,PE,2023-02-08 12:41:38
278,grindavik,63.8424,-22.4338,26.55,86,75,33.38,IS,2023-02-08 12:41:39
279,chifeng,42.2683,118.9636,22.1,34,48,3.6,CN,2023-02-08 12:39:20
280,novoagansk,61.9449,76.6625,-9.4,99,100,7.54,RU,2023-02-08 12:41:39
281,mount isa,-20.7333,139.5,76.77,100,40,3.44,AU,2023-02-08 12:41:40
282,grand gaube,-20.0064,57.6608,84.6,70,100,8.99,MU,2023-02-08 12:41:40
283,evanston,42.0411,-87.6901,30.09,83,40,3.44,US,2023-02-08 12:39:01
284,nanortalik,60.1432,-45.2371,20.82,66,100,4.09,GL,2023-02-08 12:41:41
285,maracaibo,10.6317,-71.6406,79.3,66,12,9.62,VE,2023-02-08 12:36:52
286,manzhouli,49.6,117.4333,-9.83,85,82,1.07,CN,2023-02-08 12:41:41
287,beringovskiy,63.05,179.3167,-26.79,97,30,5.88,RU,2023-02-08 12:41:42
288,ancud,-41.8697,-73.8203,61.59,78,0,1.28,CL,2023-02-08 12:41:43
289,madang,-5.2246,145.7966,77.76,88,100,8.93,PG,2023-02-08 12:41:43
290,isangel,-19.55,169.2667,78.03,86,100,4.25,VU,2023-02-08 12:41:44
291,kununurra,-15.7667,128.7333,89.58,58,100,4.61,AU,2023-02-08 12:41:44
292,tiarei,-17.5333,-149.3333,77.0,66,9,4.72,PF,2023-02-08 12:41:44
293,baykit,61.67,96.37,4.42,99,100,1.25,RU,2023-02-08 12:41:46
294,omboue,-1.5746,9.2618,87.48,61,93,9.84,GA,2023-02-08 12:41:47
295,hamilton,39.1834,-84.5333,35.94,92,0,0.0,US,2023-02-08 12:37:53
296,grand-lahou,5.1367,-5.0242,85.8,64,55,6.64,CI,2023-02-08 12:41:47
297,beloha,-25.1667,45.05,83.68,54,100,5.97,MG,2023-02-08 12:41:48
298,bac lieu,9.285,105.7244,77.94,83,16,11.1,VN,2023-02-08 12:41:49
299,adrar,20.5022,-10.0711,72.97,14,100,13.51,MR,2023-02-08 12:41:51
300,ashland,40.8167,-82.2665,34.88,94,88,2.3,US,2023-02-08 12:41:51
301,makakilo city,21.3469,-158.0858,72.19,72,75,3.44,US,2023-02-08 12:41:51
302,salinopolis,-0.6136,-47.3561,80.22,82,76,6.8,BR,2023-02-08 12:41:52
303,san patricio,28.017,-97.5169,71.46,97,58,12.33,US,2023-02-08 12:41:52
304,anzio,41.4853,12.6179,52.32,35,57,3.38,IT,2023-02-08 12:41:53
305,sistranda,63.7256,8.834,44.56,65,100,15.08,NO,2023-02-08 12:41:53
306,atar,20.5169,-13.0499,68.05,21,100,11.5,MR,2023-02-08 12:41:53
307,merauke,-8.4667,140.3333,76.33,97,100,5.08,ID,2023-02-08 12:41:54
308,nurota,40.5614,65.6886,52.34,68,100,19.3,UZ,2023-02-08 12:41:54
309,wittingen,52.7269,10.7361,42.98,68,6,9.26,DE,2023-02-08 12:41:55
310,nioro,13.35,-15.75,95.38,9,6,9.22,GM,2023-02-08 12:41:55
311,imbituba,-28.24,-48.6703,80.85,67,0,5.55,BR,2023-02-08 12:41:55
312,pacific grove,36.6177,-121.9166,47.08,85,0,9.22,US,2023-02-08 12:41:56
313,broome,42.2506,-75.833,38.86,76,100,11.5,US,2023-02-08 12:41:56
314,talara,-4.5772,-81.2719,77.76,65,75,16.11,PE,2023-02-08 12:41:57
315,puro,12.4841,123.3827,77.11,82,100,11.9,PH,2023-02-08 12:41:57
316,kisangani,0.5167,25.2,101.91,13,27,3.85,CD,2023-02-08 12:41:58
317,kaduqli,11.0167,29.7167,90.16,7,3,13.02,SD,2023-02-08 12:41:58
318,ghanzi,-21.5667,21.7833,79.56,54,100,3.98,BW,2023-02-08 12:41:59
319,fram,-26.9833,-55.8833,87.8,24,0,5.66,PY,2023-02-08 12:41:59
320,lake charles,30.2131,-93.2044,68.22,97,100,13.8,US,2023-02-08 12:41:15
321,rundu,-17.9333,19.7667,83.97,48,76,5.77,NA,2023-02-08 12:42:00
322,edgewater,28.9889,-80.9023,55.54,100,40,4.61,US,2023-02-08 12:42:01
323,seoul,37.5683,126.9778,33.4,55,0,5.75,KR,2023-02-08 12:42:02
324,pontianak,-0.0333,109.3333,76.89,87,77,4.83,ID,2023-02-08 12:42:02
325,diffa,13.3154,12.6113,87.53,13,29,16.8,NE,2023-02-08 12:42:03
326,gubkinskiy,64.434,76.5026,1.6,90,100,20.0,RU,2023-02-08 12:42:05
327,aloleng,16.1307,119.7824,78.82,78,100,8.32,PH,2023-02-08 12:42:05
328,goya,-29.14,-59.2626,95.72,22,0,6.35,AR,2023-02-08 12:42:06
329,znamenskoye,57.1281,73.8282,-10.1,100,22,2.8,RU,2023-02-08 12:42:06
330,nouadhibou,20.931,-17.0347,69.78,46,0,18.41,MR,2023-02-08 12:42:07
331,hualmay,-11.0964,-77.6139,73.22,83,46,5.59,PE,2023-02-08 12:42:07
332,bafoulabe,13.8065,-10.8321,97.79,8,6,8.39,ML,2023-02-08 12:42:08
333,swakopmund,-22.6833,14.5333,77.85,73,46,5.99,NA,2023-02-08 12:42:08
334,saquena,-4.6667,-73.5167,71.91,97,100,0.65,PE,2023-02-08 12:42:09
335,mezhdurechenskiy,59.6,65.9333,11.34,91,100,10.36,RU,2023-02-08 12:42:09
336,gunnedah,-30.9833,150.25,72.75,67,83,8.08,AU,2023-02-08 12:42:10
337,barcelos,41.5388,-8.6151,53.92,48,4,10.78,PT,2023-02-08 12:42:10
338,dossor,47.5272,52.9811,22.44,76,1,16.08,KZ,2023-02-08 12:42:11
339,san lorenzo,-25.3333,-57.5333,83.34,74,0,5.99,PY,2023-02-08 12:42:11
340,mahibadhoo,3.7833,72.9667,81.5,68,100,8.7,MV,2023-02-08 12:42:12
341,lithakia,37.7167,20.8333,47.57,49,75,9.22,GR,2023-02-08 12:42:12
342,pangai,-19.8,-174.35,80.71,78,75,5.75,TO,2023-02-08 12:42:13
343,san cristobal,7.7669,-72.225,66.38,61,99,3.09,VE,2023-02-08 12:38:52
344,owando,-0.4819,15.8999,100.94,21,38,3.56,CG,2023-02-08 12:42:14
345,craig,40.5153,-107.5464,10.02,77,100,0.0,US,2023-02-08 12:42:15
346,valparaiso,-33.0393,-71.6273,70.0,89,100,4.61,CL,2023-02-08 12:42:03
347,buchanan,5.8808,-10.0467,82.67,74,100,6.26,LR,2023-02-08 12:42:16
348,vrangel,42.7297,133.0839,21.43,66,10,9.08,RU,2023-02-08 12:42:16
349,kerouane,9.2667,-9.0167,96.15,22,6,5.26,GN,2023-02-08 12:42:17
350,yairipok,24.6667,94.0667,66.06,52,0,3.29,IN,2023-02-08 12:42:18
351,myitkyina,25.3833,97.4,64.42,49,7,2.64,MM,2023-02-08 12:42:18
352,ginir,7.1333,40.7,78.44,21,6,13.02,ET,2023-02-08 12:42:18
353,iqaluit,63.7506,-68.5145,-16.31,68,75,0.0,CA,2023-02-08 12:42:19
354,bonthe,7.5264,-12.505,85.68,57,24,10.07,SL,2023-02-08 12:42:20
355,paita,-5.0892,-81.1144,75.65,75,37,8.41,PE,2023-02-08 12:42:21
356,awbari,26.5921,12.7805,82.02,12,89,17.78,LY,2023-02-08 12:42:21
357,havelock,34.8791,-76.9013,55.35,87,0,8.05,US,2023-02-08 12:37:10
358,dunmore east,52.1514,-6.9861,49.32,72,75,19.57,IE,2023-02-08 12:42:22
359,wanaka,-44.7,169.15,44.65,70,6,4.99,NZ,2023-02-08 12:42:23
360,visnes,59.3556,5.2242,45.21,87,75,21.85,NO,2023-02-08 12:42:25
361,lar,26.2039,83.9717,64.26,46,0,6.53,IN,2023-02-08 12:42:26
362,birin,26.8865,88.0718,52.77,57,96,2.59,NP,2023-02-08 12:42:26
363,paamiut,61.994,-49.6678,16.2,85,100,20.58,GL,2023-02-08 12:42:27
364,ahipara,-35.1667,173.1667,62.91,85,8,7.09,NZ,2023-02-08 12:42:27
365,funtua,11.5233,7.3081,88.68,9,100,17.67,NG,2023-02-08 12:42:28
366,oriximina,-1.7656,-55.8661,76.14,87,100,3.31,BR,2023-02-08 12:42:28
367,buraydah,26.326,43.975,64.85,31,100,13.71,SA,2023-02-08 12:42:29
368,alyangula,-13.8483,136.4192,84.16,71,100,7.31,AU,2023-02-08 12:42:29
369,san carlos de bariloche,-41.1456,-71.3082,58.75,63,0,3.44,AR,2023-02-08 12:42:30
370,khatanga,71.9667,102.5,-45.6,100,71,4.16,RU,2023-02-08 12:42:30
371,kysyl-syr,63.8986,122.7617,-46.21,100,100,2.86,RU,2023-02-08 12:42:31
372,ballina,-28.8667,153.5667,71.02,89,56,7.54,AU,2023-02-08 12:42:31
373,salalah,17.0151,54.0924,80.69,61,0,9.22,OM,2023-02-08 12:42:31
374,tongliao,43.6125,122.2653,20.86,44,0,4.03,CN,2023-02-08 12:42:32
375,sunggal,3.5765,98.6151,80.58,83,40,5.01,ID,2023-02-08 12:42:33
376,tura,25.5198,90.2201,64.62,48,8,3.13,IN,2023-02-08 12:42:34
377,touros,-5.1989,-35.4608,86.02,53,100,12.95,BR,2023-02-08 12:41:20
378,kaitong,44.8135,123.15,17.78,55,0,4.0,CN,2023-02-08 12:42:34
379,tukrah,32.5341,20.5791,59.43,44,100,5.61,LY,2023-02-08 12:42:35
380,ahuimanu,21.4447,-157.8378,73.36,74,47,4.0,US,2023-02-08 12:42:36
381,kutum,14.2,24.6667,77.36,8,99,13.6,SD,2023-02-08 12:42:37
382,promyshlennyy,67.5833,63.9167,25.77,88,99,24.0,RU,2023-02-08 12:42:37
383,fort beaufort,-32.7748,26.6338,71.91,71,100,12.21,ZA,2023-02-08 12:42:38
384,waingapu,-9.6567,120.2641,79.16,84,21,8.52,ID,2023-02-08 12:42:38
385,dongsheng,39.8161,109.9776,28.53,43,100,3.51,CN,2023-02-08 12:42:38
386,nishihara,26.1842,127.7558,65.48,69,75,13.8,JP,2023-02-08 12:42:39
387,honningsvag,70.9821,25.9704,38.95,60,100,40.29,NO,2023-02-08 12:42:39
388,pestovo,58.5938,35.8024,28.38,92,100,8.03,RU,2023-02-08 12:42:40
389,piacabucu,-10.4056,-36.4344,84.22,48,23,8.5,BR,2023-02-08 12:42:40
390,mislinja,46.4411,15.1956,29.53,69,100,5.73,SI,2023-02-08 12:42:41
391,coahuayana,18.7333,-103.6833,66.63,79,0,3.83,MX,2023-02-08 12:42:41
392,cairns,-16.9167,145.7667,82.35,74,40,9.22,AU,2023-02-08 12:42:41
393,saravan,39.7196,45.6483,26.76,95,100,3.58,AM,2023-02-08 12:42:42
394,houston,29.7633,-95.3633,71.74,92,100,20.71,US,2023-02-08 12:36:23
395,korcula,42.9622,17.1369,41.85,43,8,15.66,HR,2023-02-08 12:42:42
396,zhongshu,24.5167,103.7667,54.73,31,0,7.11,CN,2023-02-08 12:42:43
397,nuuk,64.1835,-51.7216,12.81,67,75,20.71,GL,2023-02-08 12:42:43
398,brainerd,46.358,-94.2008,21.45,86,0,5.75,US,2023-02-08 12:42:44
399,pitiquito,30.7,-112.0833,48.99,35,5,3.87,MX,2023-02-08 12:42:44
400,malakal,9.5334,31.6605,93.67,12,4,10.8,SS,2023-02-08 12:42:45
401,teotitlan,18.1319,-97.0767,58.15,86,0,1.07,MX,2023-02-08 12:42:46
402,provideniya,64.3833,-173.3,-17.77,99,98,3.8,RU,2023-02-08 12:42:46
403,quibdo,5.6947,-76.6611,75.54,100,75,0.0,CO,2023-02-08 12:42:46
404,saurimo,-9.6608,20.3916,79.63,60,100,3.13,AO,2023-02-08 12:42:47
405,poitiers,46.5833,0.3333,47.25,64,0,4.61,FR,2023-02-08 12:42:47
406,suez,29.9737,32.5263,58.82,48,8,9.42,EG,2023-02-08 12:42:48
407,smithers,54.7804,-127.1743,26.92,86,100,4.61,CA,2023-02-08 12:42:48
408,slave lake,55.2834,-114.769,12.18,92,75,4.61,CA,2023-02-08 12:42:49
409,jinchang,38.4953,102.1739,29.66,66,100,6.62,CN,2023-02-08 12:42:49
410,gallup,35.5281,-108.7426,21.04,79,0,0.0,US,2023-02-08 12:42:50
411,dickinson,29.4608,-95.0513,71.69,92,100,14.97,US,2023-02-08 12:42:50
412,mozarlandia,-14.7447,-50.5706,81.86,73,27,2.93,BR,2023-02-08 12:42:51
413,mereni,44.05,28.3667,30.2,62,100,17.38,RO,2023-02-08 12:42:51
414,kiunga,-6.1219,141.2906,74.44,98,100,4.97,PG,2023-02-08 12:42:53
415,menongue,-14.6585,17.691,75.07,68,93,6.96,AO,2023-02-08 12:42:53
416,belaya gora,68.5333,146.4167,-46.1,100,100,3.83,RU,2023-02-08 12:42:54
417,srednekolymsk,67.45,153.6833,-28.64,98,100,5.88,RU,2023-02-08 12:42:54
418,invermere,50.5167,-116.0354,20.39,96,100,2.08,CA,2023-02-08 12:42:55
419,bogande,12.9714,-0.1436,96.73,7,100,14.32,BF,2023-02-08 12:42:55
420,inta,66.0317,60.1659,29.84,95,100,23.29,RU,2023-02-08 12:42:55
421,segezha,63.7415,34.3222,25.54,96,14,6.42,RU,2023-02-08 12:42:56
422,akropong,5.9746,-0.0854,85.15,38,77,8.93,GH,2023-02-08 12:42:56
423,hearst,49.6835,-83.6665,14.25,96,100,4.63,CA,2023-02-08 12:42:57
424,samarai,-10.6167,150.6667,80.42,82,100,9.17,PG,2023-02-08 12:42:57
425,lebu,-37.6167,-73.65,63.14,75,0,12.06,CL,2023-02-08 12:42:57
426,plettenberg bay,-34.0527,23.3716,72.12,65,56,14.63,ZA,2023-02-08 12:42:58
427,liberty,31.8335,-81.5004,52.99,93,0,0.0,US,2023-02-08 12:42:58
428,arman,59.7,150.1667,-19.86,84,43,8.81,RU,2023-02-08 12:42:59
429,goderich,43.7501,-81.7165,32.92,93,76,3.44,CA,2023-02-08 12:42:59
430,batagay-alyta,67.8006,130.4114,-45.09,100,58,3.29,RU,2023-02-08 12:42:59
431,sergeyevka,53.88,67.4158,-11.83,100,39,3.24,KZ,2023-02-08 12:41:36
432,geraldton,-28.7667,114.6,75.61,73,0,20.71,AU,2023-02-08 12:43:00
433,srandakan,-7.9386,110.2506,77.56,89,100,10.13,ID,2023-02-08 12:43:00
434,panzhihua,26.5851,101.7128,60.06,32,89,5.26,CN,2023-02-08 12:43:02
435,lagoa,39.05,-27.9833,55.89,59,72,11.65,PT,2023-02-08 12:43:03
436,tessalit,20.1986,1.0114,85.24,10,10,7.92,ML,2023-02-08 12:43:04
437,vigia del fuerte,6.5789,-76.8863,75.34,98,100,0.18,CO,2023-02-08 12:43:04
438,jinka,5.65,36.65,89.22,15,25,3.83,ET,2023-02-08 12:43:05
439,cambridge,43.3601,-80.3127,33.82,83,0,9.22,CA,2023-02-08 12:37:08
440,buala,-8.145,159.5921,79.93,85,100,5.68,SB,2023-02-08 12:43:05
441,ayan,56.45,138.1667,-19.28,82,83,7.54,RU,2023-02-08 12:43:06
442,bluefield,37.2698,-81.2223,48.76,62,100,9.22,US,2023-02-08 12:43:07
443,tete,-16.1564,33.5867,91.49,49,40,3.44,MZ,2023-02-08 12:43:07
444,atherton,53.5237,-2.4935,46.29,73,99,3.0,GB,2023-02-08 12:43:08
445,turayf,31.6725,38.6637,41.25,81,75,16.11,SA,2023-02-08 12:43:09
446,ngunguru,-35.6167,174.5,62.17,87,14,7.4,NZ,2023-02-08 12:43:10
447,springbok,-29.6643,17.8865,88.32,21,11,12.41,ZA,2023-02-08 12:43:10
448,guayaquil,-2.1667,-79.9,76.96,88,100,8.05,EC,2023-02-08 12:43:11
449,upata,8.0086,-62.3989,70.2,74,91,6.62,VE,2023-02-08 12:43:11
450,tunduma,-9.3,32.7667,67.84,77,99,8.41,TZ,2023-02-08 12:43:12
451,lorengau,-2.0226,147.2712,77.85,94,100,13.67,PG,2023-02-08 12:43:13
452,sitka,57.0531,-135.33,35.49,87,75,4.61,US,2023-02-08 12:43:13
453,nicoya,10.1483,-85.452,75.07,75,7,9.19,CR,2023-02-08 12:43:14
454,kahului,20.8947,-156.47,73.85,76,20,11.5,US,2023-02-08 12:42:26
455,shu,43.5983,73.7614,31.32,85,100,1.88,KZ,2023-02-08 12:43:15
456,rorvik,64.8621,11.2373,46.38,53,20,19.57,NO,2023-02-08 12:43:16
457,northam,51.0333,-4.2167,48.65,74,5,10.29,GB,2023-02-08 12:43:16
458,nacala,-14.5428,40.6728,83.8,71,100,12.39,MZ,2023-02-08 12:43:17
459,xining,36.6167,101.7667,26.4,74,14,3.89,CN,2023-02-08 12:43:17
460,naantali,60.4674,22.0243,37.11,93,100,5.75,FI,2023-02-08 12:43:18
461,agirish,61.9247,63.0231,16.65,93,100,9.82,RU,2023-02-08 12:43:18
462,sampit,-2.5333,112.95,77.2,86,20,3.0,ID,2023-02-08 12:43:19
463,rio grande,-32.035,-52.0986,82.51,63,8,11.74,BR,2023-02-08 12:43:19
464,outjo,-20.1167,16.15,82.2,45,96,1.72,NA,2023-02-08 12:43:20
465,san vicente,-26.6167,-54.1333,85.71,28,0,3.51,AR,2023-02-08 12:43:21
466,uruzgan,32.8333,66.0,49.75,56,2,0.54,AF,2023-02-08 12:43:21
467,mount gambier,-37.8333,140.7667,56.79,90,8,7.92,AU,2023-02-08 12:43:22
468,muros,42.7762,-9.0603,58.68,47,0,5.14,ES,2023-02-08 12:43:22
469,rabo de peixe,37.8,-25.5833,54.91,82,75,11.5,PT,2023-02-08 12:43:22
470,kautokeino,69.0125,23.0412,32.18,75,100,36.98,NO,2023-02-08 12:40:55
471,stokmarknes,68.5646,14.9108,42.78,75,75,34.52,NO,2023-02-08 12:43:23
472,praia,14.9215,-23.5087,72.14,56,75,20.71,CV,2023-02-08 12:43:18
473,shushtar,32.0455,48.8567,62.28,37,100,11.63,IR,2023-02-08 12:43:24
474,waipawa,-41.4122,175.5153,52.72,83,0,3.69,NZ,2023-02-08 12:43:24
475,lakatoro,-16.0999,167.4164,79.39,82,100,6.11,VU,2023-02-08 12:43:24
476,opuwo,-18.0607,13.84,88.41,24,41,7.76,NA,2023-02-08 12:43:25
477,tamazunchale,21.2667,-98.7833,63.43,81,88,3.27,MX,2023-02-08 12:43:26
478,totness,5.8833,-56.3167,77.63,86,86,9.93,SR,2023-02-08 12:43:26
479,sept-iles,50.2001,-66.3821,25.23,89,100,9.22,CA,2023-02-08 12:39:06
480,idaho falls,43.4666,-112.0341,21.76,91,100,3.44,US,2023-02-08 12:39:05
481,miandoab,36.9694,46.1027,41.38,41,34,7.4,IR,2023-02-08 12:43:27
482,atambua,-9.1061,124.8925,72.7,95,100,2.71,ID,2023-02-08 12:43:28
483,beibei,29.8256,106.4339,58.37,81,100,3.36,CN,2023-02-08 12:43:28
484,sao sebastiao,-23.76,-45.4097,77.29,87,32,3.76,BR,2023-02-08 12:43:29
485,takab,36.4009,47.1133,25.68,89,100,2.53,IR,2023-02-08 12:43:30
486,riachao do jacuipe,-11.8069,-39.3856,86.2,39,3,6.82,BR,2023-02-08 12:43:30
487,barentu,15.1139,37.5928,84.58,29,23,13.82,ER,2023-02-08 12:43:31
488,porto velho,-8.7619,-63.9039,77.05,94,75,1.14,BR,2023-02-08 12:43:32
489,sao felix do xingu,-6.6447,-51.995,72.23,98,100,1.57,BR,2023-02-08 12:43:32
490,cap malheureux,-19.9842,57.6142,84.47,70,100,8.99,MU,2023-02-08 12:43:33
491,kathmandu,27.7167,85.3167,59.22,63,75,4.61,NP,2023-02-08 12:41:43
492,havoysund,70.9963,24.6622,39.43,66,100,30.02,NO,2023-02-08 12:43:34
493,hvide sande,56.0045,8.1294,41.09,93,40,12.66,DK,2023-02-08 12:43:34
494,sechura,-5.5569,-80.8222,76.05,72,16,8.12,PE,2023-02-08 12:43:34
495,burdur,37.7203,30.2908,32.7,44,75,10.36,TR,2023-02-08 12:43:35
496,la ronge,55.1001,-105.2842,19.62,73,0,8.05,CA,2023-02-08 12:43:36
497,villazon,-22.0866,-65.5942,52.14,61,19,4.68,BO,2023-02-08 12:43:36
498,tolstoy-yurt,43.4444,45.7722,23.32,80,0,22.37,RU,2023-02-08 12:43:37
499,aller,43.1187,-5.5839,46.44,69,2,1.28,ES,2023-02-08 12:43:37
500,mayumba,-3.432,10.6554,84.02,75,76,11.14,GA,2023-02-08 12:43:37
501,ribeira brava,32.65,-17.0667,64.13,73,55,2.08,PT,2023-02-08 12:43:38
502,long beach,33.767,-118.1892,59.97,52,0,0.0,US,2023-02-08 12:35:58
503,sovetskiy,61.3614,63.5842,17.04,95,100,8.55,RU,2023-02-08 12:43:39
504,falam,22.9167,93.6833,51.93,46,0,3.78,MM,2023-02-08 12:43:39
505,sarkand,45.41,79.9186,24.91,72,100,6.33,KZ,2023-02-08 12:43:39
506,usinsk,65.9939,57.5281,30.6,87,100,29.12,RU,2023-02-08 12:43:40
507,san borja,-14.8167,-66.85,77.05,94,75,0.0,BO,2023-02-08 12:43:40
508,shenzhen,22.5455,114.0683,69.66,88,100,7.29,CN,2023-02-08 12:43:41
509,date,42.4681,140.8681,24.49,87,100,10.83,JP,2023-02-08 12:43:41
510,baranain,42.8057,-1.6773,48.15,87,75,1.01,ES,2023-02-08 12:43:43
511,klaksvik,62.2266,-6.589,38.32,84,100,30.24,FO,2023-02-08 12:43:43
512,ewa beach,21.3156,-158.0072,73.6,73,75,3.44,US,2023-02-08 12:43:44
513,aksum,14.1245,38.7244,80.11,14,73,6.53,ET,2023-02-08 12:43:44
514,kendari,-3.945,122.4989,77.77,86,96,3.15,ID,2023-02-08 12:43:44
515,chas,23.6333,86.1667,73.85,22,0,8.61,IN,2023-02-08 12:43:45
516,rabak,13.1809,32.74,88.81,12,33,17.54,SD,2023-02-08 12:43:46
517,bandarbeyla,9.4942,50.8122,78.42,71,7,12.21,SO,2023-02-08 12:43:46
518,hami,42.8,93.45,33.62,68,11,5.88,CN,2023-02-08 12:43:46
519,aksha,50.2814,113.2867,-1.62,97,6,1.88,RU,2023-02-08 12:43:47
520,lata,40.1629,-8.3327,54.07,57,43,12.1,PT,2023-02-08 12:43:47
521,vagur,61.4732,-6.8119,37.18,84,100,33.38,FO,2023-02-08 12:43:48
522,ratnagiri,16.9833,73.3,77.99,63,96,11.12,IN,2023-02-08 12:43:48
523,eldoret,0.5204,35.2699,80.69,22,75,21.85,KE,2023-02-08 12:43:49
524,matara,5.9485,80.5353,79.21,82,99,8.32,LK,2023-02-08 12:43:49
525,lompoc,34.6391,-120.4579,47.59,100,0,10.36,US,2023-02-08 12:43:49
526,gengenbach,48.4,8.0167,40.98,53,0,4.61,DE,2023-02-08 12:43:50
527,villa bruzual,9.3328,-69.1208,79.48,63,96,5.77,VE,2023-02-08 12:43:50
528,narsaq,60.9167,-46.05,3.42,74,100,11.54,GL,2023-02-08 12:43:51
529,vardo,70.3705,31.1107,31.98,80,0,31.07,NO,2023-02-08 12:43:51
530,baillif,16.0202,-61.7463,76.5,73,7,11.01,GP,2023-02-08 12:43:51
531,beaufort,5.3473,115.7455,75.09,91,100,3.67,MY,2023-02-08 12:43:52
532,taksimo,56.3444,114.8794,-4.81,94,100,0.74,RU,2023-02-08 12:43:52
533,bapatla,15.9,80.4667,75.63,73,13,11.05,IN,2023-02-08 12:43:53
534,kyrnasivka,48.5955,28.979,28.15,63,5,10.74,UA,2023-02-08 12:43:53
535,andros town,24.7,-77.7667,67.96,61,0,17.18,BS,2023-02-08 12:43:54
536,alto araguaia,-17.3147,-53.2153,75.29,80,90,4.54,BR,2023-02-08 12:43:54
537,kikwit,-5.041,18.8162,93.34,36,48,1.74,CD,2023-02-08 12:43:55
538,boshnyakovo,49.6333,142.1667,-12.15,100,100,5.82,RU,2023-02-08 12:43:55
539,savonlinna,61.8699,28.88,32.05,93,100,6.91,FI,2023-02-08 12:43:56
540,yuli,9.6989,10.2744,98.1,8,62,10.83,NG,2023-02-08 12:43:56
541,saint-francois,46.4154,3.9054,39.96,68,20,4.61,FR,2023-02-08 12:43:56
542,heihe,50.2441,127.4902,-3.42,100,92,3.02,CN,2023-02-08 12:43:57
543,san ramon,37.7799,-121.978,49.82,85,0,5.75,US,2023-02-08 12:43:57
544,sayyan,15.1718,44.3244,73.33,15,5,6.89,YE,2023-02-08 12:43:57
545,teahupoo,-17.8333,-149.2667,69.76,63,31,4.09,PF,2023-02-08 12:43:58
546,port hedland,-20.3167,118.5667,86.05,79,0,9.22,AU,2023-02-08 12:43:58
547,zugdidi,42.5088,41.8709,39.81,81,100,4.41,GE,2023-02-08 12:43:58
548,rodos,36.4408,28.2225,49.66,37,20,13.8,GR,2023-02-08 12:43:59
549,karasuk,53.7377,78.0403,-6.3,100,77,1.88,RU,2023-02-08 12:44:00
550,tuy hoa,13.0833,109.3,73.8,93,14,2.13,VN,2023-02-08 12:44:00
551,urucara,-2.5364,-57.76,77.34,93,92,2.93,BR,2023-02-08 12:44:00
552,quchan,37.106,58.5095,40.28,80,100,6.91,IR,2023-02-08 12:44:01
553,wahiawa,21.5028,-158.0236,70.38,72,100,0.0,US,2023-02-08 12:44:01
554,martapura,-3.4167,114.85,77.09,94,40,5.75,ID,2023-02-08 12:44:02
555,nautla,20.2167,-96.7833,66.6,91,12,7.87,MX,2023-02-08 12:44:02
556,bilma,18.6853,12.9164,84.04,11,93,10.58,NE,2023-02-08 12:44:03
557,disna,55.568,28.1971,29.66,91,100,10.78,BY,2023-02-08 12:44:03
558,huty,50.1332,35.3439,22.71,86,7,9.31,UA,2023-02-08 12:44:04
559,taunggyi,20.7833,97.0333,54.46,35,0,2.06,MM,2023-02-08 12:44:05
560,pouembout,-21.1333,164.9,78.19,88,100,0.45,NC,2023-02-08 12:44:05
561,labuhan,-6.8844,112.2051,78.62,87,97,8.55,ID,2023-02-08 12:44:06
562,ylivieska,64.0833,24.55,33.31,91,99,10.89,FI,2023-02-08 12:44:06
563,antofagasta,-23.65,-70.4,70.88,77,67,4.45,CL,2023-02-08 12:44:08
564,tayu,-6.5397,111.0518,77.25,91,96,6.76,ID,2023-02-08 12:44:09
565,salamiyah,35.0113,37.0532,45.16,36,99,18.37,SY,2023-02-08 12:44:10
566,panaba,21.2833,-88.2667,69.71,95,1,8.68,MX,2023-02-08 12:44:10
567,tateyama,34.9833,139.8667,45.1,74,87,15.86,JP,2023-02-08 12:44:11
568,manggar,-2.8833,108.2667,79.32,82,92,6.46,ID,2023-02-08 12:44:12
569,chase,50.8165,-119.6857,34.68,98,81,3.09,CA,2023-02-08 12:44:12
570,katherine,-14.4667,132.2667,86.32,66,95,4.61,AU,2023-02-08 12:44:13
