City_ID,City,Lat,Lng,Max Temp,Humidity,Cloudiness,Wind Speed,Country,Date
0,port-cartier,50.0334,-66.8654,267.21,85,100,3.14,CA,2023-02-08 01:45:35
1,tuktoyaktuk,69.4541,-133.0374,241.15,75,100,1.54,CA,2023-02-08 01:41:01
2,atuona,-9.8,-139.0333,299.42,74,28,7.37,PF,2023-02-08 01:45:44
3,avarua,-21.2078,-159.775,302.18,74,28,5.14,CK,2023-02-08 01:45:44
4,klaksvik,62.2266,-6.589,281.66,84,100,25.39,FO,2023-02-08 01:43:55
5,lavrentiya,65.5833,-171.0,247.43,92,97,1.24,RU,2023-02-08 01:45:48
6,braganca paulista,-22.94,-46.5556,291.74,98,99,1.56,BR,2023-02-08 01:45:50
7,saint anthony,45.0205,-93.218,272.03,78,0,2.06,US,2023-02-08 01:45:51
8,waverly,42.7392,-84.6208,276.11,78,100,8.23,US,2023-02-08 01:45:52
9,takoradi,4.8845,-1.7554,298.69,87,100,2.06,GH,2023-02-08 01:45:52
10,norman wells,65.282,-126.8329,251.17,71,75,0.0,CA,2023-02-08 01:45:52
11,shestakovo,56.4915,103.96,258.86,97,100,1.63,RU,2023-02-08 01:45:53
12,pizhanka,57.4604,48.542,260.19,92,100,4.89,RU,2023-02-08 01:45:53
13,sechura,-5.5569,-80.8222,297.97,74,99,5.14,PE,2023-02-08 01:42:58
14,pasvalys,56.0594,24.4036,270.07,92,99,4.57,LT,2023-02-08 01:45:53
15,kaitangata,-46.2817,169.8464,288.1,49,11,6.88,NZ,2023-02-08 01:45:54
16,cherskiy,68.75,161.3,239.37,96,100,2.46,RU,2023-02-08 01:43:21
17,cabo san lucas,22.8909,-109.9124,295.32,59,40,2.06,MX,2023-02-08 01:45:54
18,ribeira grande,38.5167,-28.7,286.36,66,9,3.58,PT,2023-02-08 01:45:54
19,hobart,-42.8794,147.3294,290.52,66,75,6.69,AU,2023-02-08 01:45:55
20,provideniya,64.3833,-173.3,254.21,65,100,3.0,RU,2023-02-08 01:45:55
21,kodiak,57.79,-152.4072,271.88,51,0,7.72,US,2023-02-08 01:45:55
22,salalah,17.0151,54.0924,293.2,52,0,1.54,OM,2023-02-08 01:45:56
23,bredasdorp,-34.5322,20.0403,291.69,79,11,3.16,ZA,2023-02-08 01:45:56
24,rikitea,-23.1203,-134.9692,299.8,68,10,4.45,PF,2023-02-08 01:45:56
25,bluff,-46.6,168.3333,288.04,61,62,11.74,NZ,2023-02-08 01:45:56
26,springbok,-29.6643,17.8865,289.42,74,15,1.26,ZA,2023-02-08 01:45:57
27,bethel,41.3712,-73.414,276.45,77,100,1.54,US,2023-02-08 01:45:58
28,paamiut,61.994,-49.6678,254.26,86,76,5.14,GL,2023-02-08 01:45:58
29,georgetown,5.4112,100.3354,300.11,88,20,4.12,MY,2023-02-08 01:42:35
30,severo-kurilsk,50.6789,156.125,269.16,54,12,4.27,RU,2023-02-08 01:45:59
31,corinto,37.9407,22.9573,278.09,82,90,2.13,GR,2023-02-08 01:45:59
32,suntar,62.1444,117.6319,241.55,96,100,1.05,RU,2023-02-08 01:44:46
33,iqaluit,63.7506,-68.5145,240.0,75,75,0.0,CA,2023-02-08 01:41:11
34,alice springs,-23.7,133.8833,306.9,40,0,5.66,AU,2023-02-08 01:45:59
35,pisco,-13.7,-76.2167,297.18,83,0,6.17,PE,2023-02-08 01:46:00
36,beidao,34.5686,105.8933,276.99,78,100,1.62,CN,2023-02-08 01:46:00
37,cidreira,-30.1811,-50.2056,297.35,80,15,6.42,BR,2023-02-08 01:46:00
38,ancud,-41.8697,-73.8203,287.24,94,0,1.62,CL,2023-02-08 01:41:10
39,mataura,-46.1927,168.8643,287.86,65,73,4.79,NZ,2023-02-08 01:46:01
40,pithora,21.2667,82.5167,290.99,37,3,0.9,IN,2023-02-08 01:46:01
41,husavik,66.0449,-17.3389,268.63,70,96,6.11,IS,2023-02-08 01:42:53
42,awbari,26.5921,12.7805,285.84,34,97,5.96,LY,2023-02-08 01:46:04
43,busselton,-33.65,115.3333,297.57,50,0,2.56,AU,2023-02-08 01:46:06
44,eureka,40.8021,-124.1637,286.49,84,98,1.83,US,2023-02-08 01:46:19
45,saint-philippe,-21.3585,55.7679,297.92,83,90,6.32,RE,2023-02-08 01:46:19
46,emirdag,39.0197,31.15,265.35,95,86,2.88,TR,2023-02-08 01:46:20
47,hermanus,-34.4187,19.2345,293.04,83,0,5.29,ZA,2023-02-08 01:46:34
48,ilulissat,69.2167,-51.1,246.16,76,100,2.57,GL,2023-02-08 01:46:34
49,avera,33.194,-82.5271,284.21,57,96,1.67,US,2023-02-08 01:46:34
50,saskylakh,71.9167,114.0833,239.24,100,100,0.32,RU,2023-02-08 01:46:42
51,stanislav,46.5691,32.1478,270.07,64,100,9.93,UA,2023-02-08 01:46:42
52,manicore,-5.8092,-61.3003,297.12,94,0,1.03,BR,2023-02-08 01:46:50
53,cape town,-33.9258,18.4232,294.38,72,0,6.26,ZA,2023-02-08 01:41:35
54,puerto ayora,-0.7393,-90.3518,299.57,92,52,3.13,EC,2023-02-08 01:46:51
55,ushuaia,-54.8,-68.3,282.96,71,20,5.14,AR,2023-02-08 01:46:52
56,lompoc,34.6391,-120.4579,288.16,81,40,3.09,US,2023-02-08 01:46:52
57,huarmey,-10.0681,-78.1522,295.62,83,6,2.67,PE,2023-02-08 01:46:52
58,carnarvon,-24.8667,113.6333,301.95,52,0,7.04,AU,2023-02-08 01:46:53
59,richards bay,-28.783,32.0377,295.65,97,3,1.43,ZA,2023-02-08 01:46:53
60,sirjan,29.452,55.6814,282.0,69,100,4.46,IR,2023-02-08 01:46:53
61,port elizabeth,-33.918,25.5701,293.76,91,40,2.57,ZA,2023-02-08 01:46:54
62,konosha,60.9736,40.257,267.31,90,100,4.1,RU,2023-02-08 01:46:54
63,dikson,73.5069,80.5464,250.78,90,100,9.73,RU,2023-02-08 01:46:54
64,bilibino,68.0546,166.4372,236.71,98,100,1.0,RU,2023-02-08 01:46:55
65,souillac,-20.5167,57.5167,299.36,83,40,4.63,MU,2023-02-08 01:42:35
66,fallon,39.4735,-118.7774,280.08,54,75,2.06,US,2023-02-08 01:46:55
67,tiksi,71.6872,128.8694,237.04,99,100,2.49,RU,2023-02-08 01:46:55
68,vaini,-21.2,-175.2,301.24,89,75,3.09,TO,2023-02-08 01:46:56
69,albany,42.6001,-73.9662,274.51,80,100,0.89,US,2023-02-08 01:45:15
70,tuatapere,-46.1333,167.6833,286.63,58,67,6.89,NZ,2023-02-08 01:46:56
71,xingyi,24.1877,102.817,287.17,42,0,3.14,CN,2023-02-08 01:46:56
72,smithers,54.7804,-127.1743,269.33,100,75,1.03,CA,2023-02-08 01:46:57
73,rawson,-43.3002,-65.1023,291.8,60,3,2.85,AR,2023-02-08 01:46:57
74,airai,-8.9266,125.4092,294.28,78,77,1.4,TL,2023-02-08 01:44:29
75,yulara,-25.2406,130.9889,308.73,18,0,3.01,AU,2023-02-08 01:46:57
76,dingle,10.9995,122.6711,299.79,78,100,5.64,PH,2023-02-08 01:46:57
77,faanui,-16.4833,-151.75,300.43,73,24,5.43,PF,2023-02-08 01:46:58
78,nemuro,43.3236,145.575,269.9,59,35,1.97,JP,2023-02-08 01:46:58
79,saint george,37.1041,-113.5841,282.83,40,0,4.12,US,2023-02-08 01:46:58
80,thompson,55.7435,-97.8558,257.24,85,100,1.54,CA,2023-02-08 01:44:45
81,los llanos de aridane,28.6585,-17.9182,285.01,67,0,2.57,ES,2023-02-08 01:44:47
82,tanout,14.9709,8.8879,290.98,21,87,4.67,NE,2023-02-08 01:46:59
83,umm lajj,25.0213,37.2685,289.42,57,93,4.29,SA,2023-02-08 01:46:59
84,jamestown,42.097,-79.2353,280.95,70,75,7.2,US,2023-02-08 01:44:21
85,ternate,0.8,127.4,298.07,91,100,4.78,ID,2023-02-08 01:46:59
86,yellowknife,62.456,-114.3525,253.44,77,75,2.57,CA,2023-02-08 01:44:53
87,butaritari,3.0707,172.7902,300.34,81,100,9.8,KI,2023-02-08 01:47:00
88,aljezur,37.3191,-8.8033,282.19,89,3,2.61,PT,2023-02-08 01:47:00
89,sola,-13.8833,167.55,300.87,77,94,6.54,VU,2023-02-08 01:47:01
90,hilo,19.7297,-155.09,298.31,90,100,6.69,US,2023-02-08 01:46:43
91,mar del plata,-38.0023,-57.5575,296.53,93,40,8.94,AR,2023-02-08 01:47:01
92,te anau,-45.4167,167.7167,287.54,46,50,5.28,NZ,2023-02-08 01:47:02
93,tasiilaq,65.6145,-37.6368,256.24,37,0,12.66,GL,2023-02-08 01:47:03
94,waingapu,-9.6567,120.2641,302.07,73,46,5.02,ID,2023-02-08 01:47:04
95,beloha,-25.1667,45.05,296.24,79,100,3.44,MG,2023-02-08 01:47:07
96,victoria,22.2855,114.1577,292.18,87,97,5.81,HK,2023-02-08 01:42:18
97,kaoma,-14.7833,24.8,290.01,99,98,1.82,ZM,2023-02-08 01:47:14
98,bengkulu,-3.8004,102.2655,300.46,63,74,2.39,ID,2023-02-08 01:42:49
99,punta arenas,-53.15,-70.9167,285.21,76,0,4.12,CL,2023-02-08 01:45:07
100,wanaka,-44.7,169.15,293.21,31,96,4.47,NZ,2023-02-08 01:47:30
101,burns lake,54.2331,-125.7533,269.83,97,97,0.9,CA,2023-02-08 01:47:32
102,lagoa,39.05,-27.9833,286.33,56,100,6.4,PT,2023-02-08 01:47:32
103,svilengrad,41.7667,26.2,271.01,65,89,2.4,BG,2023-02-08 01:47:33
104,hambantota,6.1241,81.1185,296.34,100,20,2.57,LK,2023-02-08 01:47:33
105,pangnirtung,66.1451,-65.7125,239.38,84,6,2.35,CA,2023-02-08 01:47:34
106,chuy,-33.6971,-53.4616,294.65,80,27,3.3,UY,2023-02-08 01:47:34
107,buritizeiro,-17.3511,-44.9622,296.27,79,99,0.9,BR,2023-02-08 01:47:34
108,lundazi,-12.2929,33.1782,290.6,96,100,2.47,ZM,2023-02-08 01:47:40
109,castro,-24.7911,-50.0119,289.92,93,62,2.36,BR,2023-02-08 01:47:40
110,port macquarie,-31.4333,152.9167,298.65,62,85,2.75,AU,2023-02-08 01:43:04
111,alta floresta,-9.8756,-56.0861,295.03,97,99,0.94,BR,2023-02-08 01:47:47
112,new norfolk,-42.7826,147.0587,290.33,33,6,1.45,AU,2023-02-08 01:47:49
113,tiznit,29.5833,-9.5,280.51,91,0,0.83,MA,2023-02-08 01:47:51
114,torbay,47.6666,-52.7314,269.58,86,75,9.77,CA,2023-02-08 01:45:47
115,lebu,-37.6167,-73.65,288.12,88,0,7.74,CL,2023-02-08 01:47:52
116,inverell,-29.7833,151.1167,303.77,50,74,1.34,AU,2023-02-08 01:47:52
117,lorengau,-2.0226,147.2712,298.65,95,100,6.99,PG,2023-02-08 01:47:53
118,afsin,38.2477,36.914,263.94,83,100,0.97,TR,2023-02-08 01:47:53
119,sinnamary,5.3833,-52.95,297.18,91,65,4.34,GF,2023-02-08 01:47:53
120,anchorage,61.2181,-149.9003,270.75,87,100,1.54,US,2023-02-08 01:44:27
121,barrow,71.2906,-156.7887,255.16,78,100,3.6,US,2023-02-08 01:47:54
122,tilichiki,60.4667,166.1,244.75,90,72,4.5,RU,2023-02-08 01:47:54
123,kalangala,-0.3089,32.225,292.79,64,99,2.34,UG,2023-02-08 01:47:55
124,ketchikan,55.3422,-131.6461,277.41,81,100,2.06,US,2023-02-08 01:47:55
125,porbandar,21.6422,69.6093,293.7,59,22,4.1,IN,2023-02-08 01:47:55
126,qaanaaq,77.484,-69.3632,241.37,67,4,2.79,GL,2023-02-08 01:47:56
127,flinders,-34.5833,150.8552,295.47,90,100,1.79,AU,2023-02-08 01:47:56
128,balgazyn,51.0,95.2,248.7,99,57,0.54,RU,2023-02-08 01:47:56
129,pitea,65.3172,21.4794,271.2,78,100,4.03,SE,2023-02-08 01:47:57
130,kahului,20.8947,-156.47,300.16,71,40,9.26,US,2023-02-08 01:47:57
131,longyearbyen,78.2186,15.6401,268.06,80,75,8.23,SJ,2023-02-08 01:47:57
132,srednekolymsk,67.45,153.6833,240.25,96,100,2.39,RU,2023-02-08 01:47:57
133,khatanga,71.9667,102.5,228.97,100,64,1.26,RU,2023-02-08 01:44:32
134,viedma,-40.8135,-62.9967,292.55,64,11,3.86,AR,2023-02-08 01:47:58
135,panaba,21.2833,-88.2667,296.41,77,0,4.42,MX,2023-02-08 01:47:58
136,ozinki,51.1786,49.6769,257.45,96,29,4.87,RU,2023-02-08 01:47:58
137,sitka,57.0531,-135.33,277.09,75,20,1.54,US,2023-02-08 01:47:59
138,mayo,38.8876,-76.5119,282.18,80,0,4.12,US,2023-02-08 01:47:59
139,san policarpo,12.1791,125.5072,300.53,74,100,6.6,PH,2023-02-08 01:47:59
140,berbera,10.4396,45.0143,297.12,81,11,1.6,SO,2023-02-08 01:48:00
141,shache,38.4167,77.2406,270.73,66,0,2.28,CN,2023-02-08 01:48:00
142,palakkad,10.7833,76.65,294.75,66,37,2.55,IN,2023-02-08 01:48:00
143,upernavik,72.7868,-56.1549,243.06,96,48,1.79,GL,2023-02-08 01:48:01
144,bonanza,14.0289,-84.591,293.1,99,31,0.83,NI,2023-02-08 01:48:01
145,liverpool,53.4106,-2.9779,279.16,86,100,2.06,GB,2023-02-08 01:45:46
146,taoudenni,22.6783,-3.9836,290.79,20,100,5.11,ML,2023-02-08 01:48:02
147,antsohihy,-14.8796,47.9875,295.49,98,88,0.64,MG,2023-02-08 01:48:05
148,saint-francois,46.4154,3.9054,267.97,93,1,0.0,FR,2023-02-08 01:48:06
149,mahebourg,-20.4081,57.7,299.31,83,40,4.63,MU,2023-02-08 01:48:07
150,cap-aux-meules,47.3821,-61.8597,268.18,63,0,4.12,CA,2023-02-08 01:48:07
151,port alfred,-33.5906,26.891,293.81,89,100,1.79,ZA,2023-02-08 01:48:11
152,makakilo city,21.3469,-158.0858,299.33,65,100,9.26,US,2023-02-08 01:45:06
153,codajas,-3.8367,-62.0569,296.32,99,100,1.38,BR,2023-02-08 01:48:14
154,hasaki,35.7333,140.8333,284.42,68,100,9.42,JP,2023-02-08 01:46:02
155,belmonte,-15.8631,-38.8828,298.55,78,6,3.75,BR,2023-02-08 01:48:15
156,east london,-33.0153,27.9116,294.64,84,100,5.18,ZA,2023-02-08 01:48:19
157,poya,-21.35,165.15,301.78,76,100,0.63,NC,2023-02-08 01:48:23
158,svirstroy,60.7999,33.7248,269.36,93,100,4.59,RU,2023-02-08 01:48:23
159,kapaa,22.0752,-159.319,299.33,88,100,6.17,US,2023-02-08 01:48:24
160,calamar,10.2511,-74.9146,299.0,74,5,2.41,CO,2023-02-08 01:48:25
161,nikolskoye,59.7035,30.7861,272.09,86,100,4.5,RU,2023-02-08 01:48:26
162,puerto carreno,6.189,-67.4859,301.12,52,10,2.61,CO,2023-02-08 01:48:30
163,cayenne,4.9333,-52.3333,298.17,88,75,1.54,GF,2023-02-08 01:45:41
164,kabanga,-2.6386,30.4678,286.39,94,45,0.45,TZ,2023-02-08 01:48:33
165,platanos,37.6667,21.6167,278.2,66,59,2.66,GR,2023-02-08 01:48:34
166,luderitz,-26.6481,15.1594,291.62,83,27,8.47,NA,2023-02-08 01:48:35
167,mizan teferi,6.9833,35.5833,290.68,49,7,1.06,ET,2023-02-08 01:48:39
168,geraldton,-28.7667,114.6,300.38,54,0,3.6,AU,2023-02-08 01:48:43
169,shubarshi,48.5872,57.1869,260.14,88,97,6.38,KZ,2023-02-08 01:48:43
170,san patricio,28.017,-97.5169,296.2,80,94,6.22,US,2023-02-08 01:48:44
171,kearney,40.6995,-99.0815,275.46,76,0,3.09,US,2023-02-08 01:48:44
172,larkollen,59.3339,10.6656,275.18,98,100,2.06,NO,2023-02-08 01:48:44
173,adrar,20.5022,-10.0711,288.69,23,100,4.91,MR,2023-02-08 01:48:48
174,shieli,44.1667,66.75,273.5,76,100,3.03,KZ,2023-02-08 01:48:49
175,mackenzie,55.2999,-123.1698,270.27,74,100,1.54,CA,2023-02-08 01:45:46
176,axim,4.8699,-2.2405,298.39,87,100,1.44,GH,2023-02-08 01:48:49
177,hami,42.8,93.45,274.25,62,100,0.99,CN,2023-02-08 01:48:50
178,hobyo,5.3505,48.5268,298.21,69,97,6.88,SO,2023-02-08 01:48:50
179,arraial do cabo,-22.9661,-42.0278,297.13,91,100,1.96,BR,2023-02-08 01:48:51
180,jimenez,28.3333,-105.4,288.02,25,53,4.01,MX,2023-02-08 01:48:51
181,kovdor,67.5662,30.4758,268.19,87,51,2.8,RU,2023-02-08 01:48:51
182,trairi,-3.2778,-39.2689,298.41,81,100,3.33,BR,2023-02-08 01:47:24
183,roald,62.5833,6.1333,280.66,57,76,9.77,NO,2023-02-08 01:47:01
184,bulgan,48.8125,103.5347,256.02,91,8,1.41,MN,2023-02-08 01:48:52
185,altay,47.8667,88.1167,264.53,72,100,1.89,CN,2023-02-08 01:48:52
186,coihaique,-45.5752,-72.0662,290.12,67,75,1.03,CL,2023-02-08 01:48:52
187,zhangjiakou,40.81,114.8794,268.89,51,33,1.28,CN,2023-02-08 01:48:53
188,fort nelson,58.8053,-122.7002,263.92,86,20,1.03,CA,2023-02-08 01:48:53
189,honningsvag,70.9821,25.9704,276.01,60,20,14.4,NO,2023-02-08 01:48:54
190,hithadhoo,-0.6,73.0833,300.45,72,13,3.58,MV,2023-02-08 01:48:54
191,san rafael,-34.6177,-68.3301,300.99,32,25,3.31,AR,2023-02-08 01:45:27
192,puerto madryn,-42.7692,-65.0385,292.98,51,0,3.74,AR,2023-02-08 01:44:47
193,port hardy,50.6996,-127.4199,277.25,93,75,2.57,CA,2023-02-08 01:48:54
194,tabou,4.423,-7.3528,299.1,86,100,2.71,CI,2023-02-08 01:48:55
195,asau,46.4333,26.4,267.66,97,97,1.97,RO,2023-02-08 01:48:55
196,saquarema,-22.92,-42.5103,296.9,93,100,1.13,BR,2023-02-08 01:48:55
197,xichang,27.8964,102.2634,282.77,61,1,0.94,CN,2023-02-08 01:48:56
198,nabire,-3.3667,135.4833,298.36,86,100,1.21,ID,2023-02-08 01:48:56
199,presidencia roque saenz pena,-26.7852,-60.4388,301.82,35,35,1.23,AR,2023-02-08 01:48:56
200,daru,-9.0763,143.2092,302.42,70,99,5.17,PG,2023-02-08 01:48:56
201,wanning,18.8003,110.3967,297.81,81,24,3.51,CN,2023-02-08 01:48:57
202,thinadhoo,0.5333,72.9333,300.24,73,41,2.93,MV,2023-02-08 01:48:57
203,nanortalik,60.1432,-45.2371,257.96,73,10,8.85,GL,2023-02-08 01:48:57
204,ugoofaaru,5.6667,73.0,300.07,67,16,2.9,MV,2023-02-08 01:48:58
205,hofn,64.2539,-15.2082,272.96,71,100,8.21,IS,2023-02-08 01:48:58
206,west wendover,40.7391,-114.0733,274.71,69,0,2.06,US,2023-02-08 01:48:58
207,krasnoselkup,65.7,82.4667,243.97,100,100,3.19,RU,2023-02-08 01:48:58
208,havoysund,70.9963,24.6622,276.28,73,22,12.95,NO,2023-02-08 01:48:59
209,sumbe,-11.2061,13.8437,296.66,81,100,2.94,AO,2023-02-08 01:48:59
210,sobolevo,54.4299,31.8996,257.71,99,64,1.59,RU,2023-02-08 01:48:59
211,eidfjord,60.4675,7.0719,277.58,99,99,2.19,NO,2023-02-08 01:49:00
212,mayor pablo lagerenza,-19.9309,-60.7718,297.4,81,100,2.03,PY,2023-02-08 01:49:00
213,coolum beach,-26.5333,153.1,302.1,70,76,6.56,AU,2023-02-08 01:49:01
214,bom jesus da lapa,-13.255,-43.4181,295.6,57,11,0.76,BR,2023-02-08 01:49:01
215,miri,4.4148,114.0089,299.23,83,20,1.54,MY,2023-02-08 01:49:01
216,mount gambier,-37.8333,140.7667,295.63,44,18,4.76,AU,2023-02-08 01:47:06
217,itoman,26.1247,127.6694,295.36,68,20,7.2,JP,2023-02-08 01:49:08
218,faya,18.3851,42.4509,284.21,61,4,1.26,SA,2023-02-08 01:49:13
219,west helena,34.5507,-90.6418,289.01,85,91,0.91,US,2023-02-08 01:49:19
220,fortuna,40.5982,-124.1573,286.34,79,0,0.0,US,2023-02-08 01:49:30
221,touros,-5.1989,-35.4608,298.97,72,100,5.36,BR,2023-02-08 01:44:51
222,mangrol,21.1167,70.1167,293.36,58,12,3.27,IN,2023-02-08 01:49:37
223,parrita,9.5201,-84.3225,298.87,77,100,0.71,CR,2023-02-08 01:49:39
224,anadyr,64.75,177.4833,241.48,74,20,6.0,RU,2023-02-08 01:49:48
225,nargana,9.4428,-78.5906,299.09,84,87,7.66,PA,2023-02-08 01:49:51
226,salumbar,24.1333,74.05,288.19,30,2,1.97,IN,2023-02-08 01:49:52
227,rabo de peixe,37.8,-25.5833,285.88,82,40,5.66,PT,2023-02-08 01:49:52
228,werder,52.3787,12.934,272.62,63,81,1.9,DE,2023-02-08 01:49:52
229,hojai,26.0,92.8667,289.32,62,48,1.12,IN,2023-02-08 01:49:53
230,marsa matruh,31.3525,27.2453,281.26,87,75,2.57,EG,2023-02-08 01:49:53
231,jieshi,22.8134,115.8257,291.84,77,35,10.26,CN,2023-02-08 01:49:53
232,vestmannaeyjar,63.4427,-20.2734,273.48,57,100,16.36,IS,2023-02-08 01:45:00
233,sao joao de pirabas,-0.7747,-47.1772,297.89,90,100,2.32,BR,2023-02-08 01:49:54
234,sala,34.0389,-6.8166,285.53,87,40,4.12,MA,2023-02-08 01:49:54
235,kichera,55.9375,110.0997,256.37,84,67,1.12,RU,2023-02-08 01:49:54
236,mizdah,31.4451,12.9801,280.56,73,86,8.4,LY,2023-02-08 01:49:55
237,chunoyar,57.4467,97.3217,261.67,97,100,1.39,RU,2023-02-08 01:49:55
238,mogadishu,2.0371,45.3438,297.53,85,10,7.23,SO,2023-02-08 01:49:55
239,lensk,60.7253,114.9278,250.34,97,100,1.46,RU,2023-02-08 01:49:56
240,lazi,48.0667,24.2333,264.89,95,36,2.37,UA,2023-02-08 01:49:56
241,road town,18.4167,-64.6167,298.2,88,40,4.63,VG,2023-02-08 01:49:56
242,mabaruma,8.2,-59.7833,295.04,99,18,0.94,GY,2023-02-08 01:49:56
243,poddorye,57.4695,31.1156,270.23,89,100,4.0,RU,2023-02-08 01:49:57
244,broome,42.2506,-75.833,277.29,75,100,4.92,US,2023-02-08 01:49:57
245,palmer,42.1584,-72.3287,274.4,76,100,2.57,US,2023-02-08 01:49:57
246,kerman,30.2832,57.0788,285.07,50,75,7.2,IR,2023-02-08 01:49:58
247,ialibu,-6.2821,143.9935,293.84,71,89,1.67,PG,2023-02-08 01:49:58
248,sehithwa,-20.4667,22.7167,292.36,94,100,5.23,BW,2023-02-08 01:49:58
249,bowmore,34.9421,-79.3031,286.33,67,0,1.54,US,2023-02-08 01:49:58
250,baykit,61.67,96.37,257.66,98,100,0.85,RU,2023-02-08 01:49:59
251,avanigadda,16.0215,80.9181,294.86,81,100,1.45,IN,2023-02-08 01:49:59
252,ocna mures,46.3833,23.85,266.51,95,31,0.8,RO,2023-02-08 01:49:59
253,ostrovnoy,68.0531,39.5131,272.86,75,3,11.13,RU,2023-02-08 01:50:00
254,cabedelo,-6.9811,-34.8339,298.52,73,99,3.95,BR,2023-02-08 01:50:00
255,ixtapa,20.7,-105.2,295.72,73,0,4.12,MX,2023-02-08 01:48:26
256,aspe,38.3451,-0.7672,281.98,74,100,2.68,ES,2023-02-08 01:50:01
257,khuzhir,53.1939,107.3397,260.18,89,100,1.87,RU,2023-02-08 01:50:01
258,kachiry,53.0675,76.1036,253.32,100,99,1.31,KZ,2023-02-08 01:50:07
259,boa vista,2.8197,-60.6733,301.14,65,75,5.14,BR,2023-02-08 01:48:21
260,west bay,19.3667,-81.4167,300.19,81,20,6.69,KY,2023-02-08 01:50:22
261,kaeo,-35.1,173.7833,297.24,50,27,3.04,NZ,2023-02-08 01:45:52
262,salta,-24.7859,-65.4117,295.69,71,0,1.03,AR,2023-02-08 01:48:16
263,ushtobe,45.2514,77.9838,267.23,92,83,3.58,KZ,2023-02-08 01:50:27
264,cockburn town,21.4612,-71.1419,298.65,74,0,10.39,TC,2023-02-08 01:50:38
265,arys,42.4252,68.795,275.71,55,100,2.05,KZ,2023-02-08 01:50:39
266,rio gallegos,-51.6226,-69.2181,287.18,77,0,9.77,AR,2023-02-08 01:50:39
267,along,28.1667,94.7667,285.54,93,100,0.83,IN,2023-02-08 01:50:49
268,yichang,30.7144,111.2847,282.75,88,100,0.12,CN,2023-02-08 01:50:53
269,fukue,32.6881,128.8419,286.35,58,40,6.69,JP,2023-02-08 01:50:55
270,rehoboth,-23.3167,17.0833,293.16,69,6,2.0,NA,2023-02-08 01:50:55
271,muroto,33.2833,134.15,285.77,60,14,2.55,JP,2023-02-08 01:50:56
272,bambous virieux,-20.3428,57.7575,299.29,83,40,4.63,MU,2023-02-08 01:50:57
273,alamogordo,32.8995,-105.9603,279.94,54,40,6.69,US,2023-02-08 01:46:50
274,achinsk,56.2694,90.4993,263.04,94,100,2.95,RU,2023-02-08 01:50:58
275,karasburg,-28.0167,18.75,292.53,57,24,2.52,NA,2023-02-08 01:50:58
276,kizukuri,40.8061,140.3861,274.88,73,100,0.82,JP,2023-02-08 01:50:59
277,zunyi,27.6867,106.9072,279.56,91,100,2.4,CN,2023-02-08 01:50:59
278,berlevag,70.8578,29.0864,275.15,80,20,11.83,NO,2023-02-08 01:50:59
279,kempele,64.9131,25.5034,269.16,100,100,4.12,FI,2023-02-08 01:51:00
280,darhan,49.4867,105.9228,252.97,96,8,2.03,MN,2023-02-08 01:51:00
281,pachino,36.7186,15.0907,281.74,64,100,7.61,IT,2023-02-08 01:51:00
282,nishihara,26.1842,127.7558,294.96,68,20,7.2,JP,2023-02-08 01:51:01
283,kavieng,-2.5744,150.7967,300.74,79,99,4.0,PG,2023-02-08 01:51:01
284,mpulungu,-8.7623,31.1141,293.83,87,100,1.07,ZM,2023-02-08 01:51:01
285,korla,41.7597,86.1469,271.61,85,14,0.89,CN,2023-02-08 01:51:02
286,asyut,27.181,31.1837,280.25,59,83,2.12,EG,2023-02-08 01:51:03
287,uige,-7.6087,15.0613,291.86,93,100,1.71,AO,2023-02-08 01:51:04
288,port shepstone,-30.7414,30.455,296.77,82,100,7.83,ZA,2023-02-08 01:51:08
289,miranda,3.2499,-76.2281,296.22,85,81,2.61,CO,2023-02-08 01:51:09
290,guerrero negro,27.9769,-114.0611,291.42,30,0,2.89,MX,2023-02-08 01:50:58
291,bafra,41.5678,35.9069,274.72,91,100,7.21,TR,2023-02-08 01:51:12
292,agnibilekrou,7.1344,-3.2047,296.1,92,98,1.59,CI,2023-02-08 01:51:14
293,zakamensk,50.3741,103.2863,254.89,94,68,1.38,RU,2023-02-08 01:51:14
294,jining,35.405,116.5814,282.06,55,100,3.64,CN,2023-02-08 01:49:02
295,saint-prosper,46.2117,-70.4811,268.31,94,100,3.79,CA,2023-02-08 01:51:17
296,kiknur,57.3034,47.2011,259.61,93,100,4.11,RU,2023-02-08 01:51:18
297,golden,39.7555,-105.2211,276.16,47,0,3.09,US,2023-02-08 01:51:21
298,launceston,-41.45,147.1667,295.16,54,40,3.6,AU,2023-02-08 01:48:39
299,oistins,13.0667,-59.5333,297.2,88,75,8.75,BB,2023-02-08 01:51:23
300,buraydah,26.326,43.975,281.4,43,100,2.92,SA,2023-02-08 01:51:24
301,tura,25.5198,90.2201,291.03,47,97,1.02,IN,2023-02-08 01:51:26
302,bryan,30.6744,-96.37,294.01,87,100,4.63,US,2023-02-08 01:51:15
303,college,64.8569,-147.8028,259.59,82,40,0.0,US,2023-02-08 01:51:27
304,north bend,43.4065,-124.2243,283.66,96,100,4.12,US,2023-02-08 01:51:27
305,panacan,9.2463,118.4082,300.78,74,100,4.76,PH,2023-02-08 01:51:30
306,port lincoln,-34.7333,135.8667,296.34,60,6,5.04,AU,2023-02-08 01:51:35
307,namatanai,-3.6667,152.4333,303.12,64,93,4.64,PG,2023-02-08 01:51:35
308,sisimiut,66.9395,-53.6735,247.58,93,100,2.15,GL,2023-02-08 01:51:35
309,bandarbeyla,9.4942,50.8122,298.12,75,98,6.98,SO,2023-02-08 01:51:36
310,lata,40.1629,-8.3327,281.52,80,33,2.1,PT,2023-02-08 01:51:36
311,brae,60.3964,-1.353,279.9,73,100,14.0,GB,2023-02-08 01:51:36
312,boundiali,9.5217,-6.4869,299.09,50,33,2.12,CI,2023-02-08 01:51:37
313,mount isa,-20.7333,139.5,305.02,58,40,4.12,AU,2023-02-08 01:51:37
314,gouyave,12.1646,-61.7296,297.58,83,40,4.12,GD,2023-02-08 01:51:37
315,dahuk,36.8695,42.994,275.42,95,99,2.89,IQ,2023-02-08 01:51:38
316,manali,13.1667,80.2667,296.2,73,65,0.47,IN,2023-02-08 01:51:38
317,pevek,69.7008,170.3133,243.38,93,100,1.31,RU,2023-02-08 01:51:38
318,russell,32.3502,-85.1999,290.72,76,0,0.0,US,2023-02-08 01:51:38
319,dhrangadhra,22.9833,71.4667,291.25,28,2,1.74,IN,2023-02-08 01:51:39
320,bourges,47.25,2.4167,272.92,73,53,2.33,FR,2023-02-08 01:51:39
321,tsabong,-26.0217,22.401,294.67,67,100,2.37,BW,2023-02-08 01:51:39
322,rio claro,-22.4114,-47.5614,293.86,94,100,0.86,BR,2023-02-08 01:51:40
323,superior,46.7208,-92.1041,272.69,65,0,5.66,US,2023-02-08 01:51:40
324,harnai,30.1005,67.9374,285.25,24,10,0.35,PK,2023-02-08 01:51:40
325,north platte,41.1239,-100.7654,274.09,82,0,2.24,US,2023-02-08 01:51:41
326,sturgeon falls,46.3646,-79.9326,274.76,82,100,5.56,CA,2023-02-08 01:51:41
327,deputatskiy,69.3,139.9,231.25,98,55,1.7,RU,2023-02-08 01:51:41
328,racine,42.7495,-88.0751,275.15,80,0,3.09,US,2023-02-08 01:51:07
329,carupano,10.6678,-63.2585,296.58,90,16,3.86,VE,2023-02-08 01:51:42
330,bria,6.5423,21.9863,292.85,19,9,2.01,CF,2023-02-08 01:51:42
331,kushima,31.4583,131.2333,288.3,74,76,0.82,JP,2023-02-08 01:51:42
332,mbuji-mayi,-6.15,23.6,293.6,92,100,1.54,CD,2023-02-08 01:51:42
333,basco,20.4487,121.9702,298.24,76,5,8.25,PH,2023-02-08 01:51:43
334,alofi,-19.0595,-169.9187,300.09,83,100,3.6,NU,2023-02-08 01:51:43
335,arman,59.7,150.1667,247.6,75,34,3.59,RU,2023-02-08 01:51:43
336,chivay,-15.6383,-71.6011,281.66,89,96,1.12,PE,2023-02-08 01:51:44
337,sao joao da barra,-21.6403,-41.0511,296.86,92,100,2.41,BR,2023-02-08 01:51:44
338,nome,64.5011,-165.4064,251.57,71,0,1.54,US,2023-02-08 01:51:44
339,haapiti,-17.5667,-149.8667,303.0,64,1,1.96,PF,2023-02-08 01:51:44
340,veracruz,19.3333,-96.6667,291.44,93,0,0.41,MX,2023-02-08 01:42:38
341,hay river,60.8156,-115.7999,253.14,77,40,2.06,CA,2023-02-08 01:48:51
342,skelleftea,64.7507,20.9528,270.35,100,80,1.54,SE,2023-02-08 01:51:45
343,coquimbo,-29.9533,-71.3436,291.0,88,100,1.54,CL,2023-02-08 01:51:45
344,puerto escondido,15.85,-97.0667,300.61,65,20,0.0,MX,2023-02-08 01:44:59
345,leshukonskoye,64.8989,45.7622,273.77,98,100,4.7,RU,2023-02-08 01:51:45
346,tabuk,17.4189,121.4443,298.81,82,78,0.92,PH,2023-02-08 01:51:46
347,jatibonico,21.9419,-79.17,295.44,79,0,5.9,CU,2023-02-08 01:51:46
348,kamenka,51.3223,42.7678,259.02,94,7,4.47,RU,2023-02-08 01:51:46
349,cody,44.5263,-109.0565,277.27,41,0,5.14,US,2023-02-08 01:51:23
350,vila do maio,15.1333,-23.2167,293.59,66,15,8.15,CV,2023-02-08 01:51:47
351,suwalki,54.1118,22.9309,269.64,92,93,2.38,PL,2023-02-08 01:51:47
352,grass valley,39.2191,-121.0611,282.5,80,0,0.89,US,2023-02-08 01:50:24
353,zhigansk,66.7697,123.3711,228.66,98,100,2.91,RU,2023-02-08 01:51:47
354,ndele,8.4109,20.6473,296.05,15,99,3.13,CF,2023-02-08 01:51:48
355,kruisfontein,-34.0033,24.7314,292.53,83,100,1.85,ZA,2023-02-08 01:51:48
356,mudgee,-32.5943,149.5871,299.7,39,20,4.09,AU,2023-02-08 01:51:48
357,krasnyy chikoy,50.3643,108.7512,255.46,92,42,1.01,RU,2023-02-08 01:51:48
358,algiers,36.7525,3.042,280.05,93,40,0.51,DZ,2023-02-08 01:51:49
359,hato mayor,18.7629,-69.256,294.45,87,0,3.55,DO,2023-02-08 01:51:49
360,yazd,31.8972,54.3675,287.21,30,20,6.17,IR,2023-02-08 01:51:50
361,laguna,38.421,-121.4238,288.31,61,0,0.0,US,2023-02-08 01:51:50
362,aleksandrov gay,50.147,48.5704,260.07,90,6,6.17,RU,2023-02-08 01:51:50
363,henties bay,-22.116,14.2845,291.29,89,47,2.06,NA,2023-02-08 01:51:50
364,soyo,-6.1349,12.3689,299.21,84,89,3.52,AO,2023-02-08 01:51:51
365,san cristobal,7.7669,-72.225,294.25,78,12,0.74,VE,2023-02-08 01:50:21
366,iloilo,10.6969,122.5644,299.83,77,100,7.36,PH,2023-02-08 01:51:51
367,omboue,-1.5746,9.2618,298.23,88,100,2.22,GA,2023-02-08 01:51:51
368,los zacatones,22.95,-102.05,290.68,19,87,5.28,MX,2023-02-08 01:51:52
369,ngunguru,-35.6167,174.5,296.0,55,44,1.17,NZ,2023-02-08 01:51:52
370,ponta do sol,32.6667,-17.1,288.71,59,36,3.46,PT,2023-02-08 01:51:52
371,sept-iles,50.2001,-66.3821,267.39,81,75,9.77,CA,2023-02-08 01:49:02
372,ambon,-3.6954,128.1814,305.23,66,40,2.06,ID,2023-02-08 01:51:53
373,itarema,-2.9248,-39.9167,298.62,82,100,3.94,BR,2023-02-08 01:51:53
374,portales,34.1862,-103.3344,279.27,39,100,2.59,US,2023-02-08 01:51:53
375,aykhal,66.0,111.5,234.67,100,82,1.25,RU,2023-02-08 01:51:53
376,yumen,40.2833,97.2,270.73,53,21,5.06,CN,2023-02-08 01:51:54
377,aktash,50.3,87.7333,252.08,89,100,2.36,RU,2023-02-08 01:51:54
378,katsuura,35.1333,140.3,283.42,71,98,8.08,JP,2023-02-08 01:51:54
379,beian,63.6559,9.5683,279.82,87,0,7.2,NO,2023-02-08 01:51:55
380,kayseri,38.737,35.4968,263.16,85,75,0.0,TR,2023-02-08 01:51:55
381,sao filipe,14.8961,-24.4956,293.22,69,18,4.82,CV,2023-02-08 01:51:55
382,hassleholm,56.1591,13.7664,275.03,90,99,2.58,SE,2023-02-08 01:51:55
383,broken hill,-31.95,141.4333,302.98,16,0,5.07,AU,2023-02-08 01:51:56
384,lima,-12.0432,-77.0282,298.65,75,0,6.17,PE,2023-02-08 01:51:42
385,abha,18.2164,42.5053,284.05,82,0,0.0,SA,2023-02-08 01:51:56
386,sumenep,-7.0167,113.8667,299.86,84,99,5.18,ID,2023-02-08 01:51:56
387,uruguaiana,-29.7547,-57.0883,302.11,51,0,2.06,BR,2023-02-08 01:51:33
388,pascagoula,30.3658,-88.5561,292.18,95,40,3.6,US,2023-02-08 01:49:53
389,talara,-4.5772,-81.2719,299.57,69,0,4.12,PE,2023-02-08 01:51:57
390,slave lake,55.2834,-114.769,270.14,63,0,0.0,CA,2023-02-08 01:51:57
391,port keats,-14.25,129.55,304.72,61,7,3.94,AU,2023-02-08 01:51:57
392,kongoussi,13.3258,-1.5347,298.68,16,99,3.25,BF,2023-02-08 01:51:58
393,narsaq,60.9167,-46.05,251.27,63,0,3.6,GL,2023-02-08 01:51:58
394,marsaxlokk,35.8419,14.5431,282.49,81,100,5.14,MT,2023-02-08 01:51:58
395,kunming,25.0389,102.7183,282.11,71,0,5.0,CN,2023-02-08 01:51:58
396,sidney,-33.8679,151.2073,301.81,64,59,3.13,AU,2023-02-08 01:48:51
397,kofele,7.0667,38.7833,280.84,36,0,3.23,ET,2023-02-08 01:51:59
398,kismayo,-0.3582,42.5454,297.74,85,12,6.78,SO,2023-02-08 01:51:59
399,korhogo,9.45,-5.6333,299.07,48,79,1.99,CI,2023-02-08 01:51:59
400,mattru,7.6244,-11.8332,296.06,80,74,0.74,SL,2023-02-08 01:52:00
401,talcahuano,-36.7167,-73.1167,288.11,76,0,4.64,CL,2023-02-08 01:52:00
402,esperance,-33.8667,121.9,294.58,66,88,4.91,AU,2023-02-08 01:52:00
403,gilgit,35.9221,74.3087,266.61,61,9,1.7,PK,2023-02-08 01:47:42
404,voykove,45.3826,36.4372,272.42,81,100,14.47,UA,2023-02-08 01:52:01
405,vila velha,-20.3297,-40.2925,300.12,89,75,3.6,BR,2023-02-08 01:49:56
406,itaituba,-4.2761,-55.9836,296.45,98,100,0.41,BR,2023-02-08 01:52:01
407,hirara,24.8,125.2833,295.07,83,75,5.66,JP,2023-02-08 01:52:02
408,santa cruz,-17.8,-63.1667,297.85,83,100,3.09,BO,2023-02-08 01:50:58
409,punta gorda,26.9298,-82.0454,295.17,81,0,5.81,US,2023-02-08 01:52:05
410,greven,52.0936,7.594,271.69,86,20,1.54,DE,2023-02-08 01:52:06
411,kjollefjord,70.9457,27.3465,276.18,80,40,11.83,NO,2023-02-08 01:52:07
412,salvador,13.8333,-88.9167,295.96,59,3,1.34,SV,2023-02-08 01:52:08
413,hanzhong,33.0728,107.0303,280.98,86,100,2.91,CN,2023-02-08 01:52:09
414,dryden,49.7833,-92.7503,266.31,68,75,3.6,CA,2023-02-08 01:52:10
415,banikoara,11.2985,2.4386,297.69,16,100,2.36,BJ,2023-02-08 01:52:10
416,rangapara,26.8167,92.65,289.55,67,99,3.2,IN,2023-02-08 01:52:11
417,lahaina,20.8783,-156.6825,300.15,85,20,4.85,US,2023-02-08 01:51:48
418,meulaboh,4.1363,96.1285,299.15,76,89,0.97,ID,2023-02-08 01:52:14
419,oussouye,12.485,-16.5469,293.25,46,43,4.07,SN,2023-02-08 01:52:16
420,ciudad bolivar,8.1222,-63.5497,299.76,66,77,5.68,VE,2023-02-08 01:52:18
421,bathsheba,13.2167,-59.5167,297.49,88,75,8.75,BB,2023-02-08 01:52:10
422,mumford,5.2618,-0.759,298.75,90,69,3.34,GH,2023-02-08 01:52:19
423,clyde river,70.4692,-68.5914,238.28,68,0,2.06,CA,2023-02-08 01:52:21
424,puerto colombia,10.9878,-74.9547,299.2,81,2,14.87,CO,2023-02-08 01:50:18
425,lutz,28.1511,-82.4615,296.05,71,0,0.89,US,2023-02-08 01:52:25
426,rocha,-34.4833,-54.3333,293.3,85,6,3.33,UY,2023-02-08 01:52:28
427,maceio,-9.6658,-35.7353,296.84,94,20,0.51,BR,2023-02-08 01:52:29
428,cravo norte,6.3017,-70.2041,301.52,50,86,2.14,CO,2023-02-08 01:52:31
429,barsovo,61.1667,73.1667,242.6,100,50,1.9,RU,2023-02-08 01:52:32
430,kaniama,-7.5667,24.1833,291.63,97,100,1.42,CD,2023-02-08 01:52:33
431,baglung,28.2719,83.5898,282.84,42,15,2.51,NP,2023-02-08 01:48:46
432,plettenberg bay,-34.0527,23.3716,292.3,86,100,2.55,ZA,2023-02-08 01:52:34
433,mbaiki,3.8678,17.9892,294.04,22,21,1.03,CF,2023-02-08 01:52:34
434,padang,-0.9492,100.3543,300.18,58,79,0.55,ID,2023-02-08 01:52:34
435,miles city,46.4083,-105.8406,279.69,52,0,3.6,US,2023-02-08 01:52:35
436,brun,39.5349,46.3073,269.57,98,100,2.16,AM,2023-02-08 01:52:36
437,palenque,17.5167,-91.9667,300.24,74,20,2.57,MX,2023-02-08 01:44:07
438,saldanha,-33.0117,17.9442,290.18,89,0,5.9,ZA,2023-02-08 01:52:36
439,egvekinot,66.3167,-179.1667,243.66,87,87,3.78,RU,2023-02-08 01:52:36
440,dajal,29.5577,70.3762,286.14,43,12,3.5,PK,2023-02-08 01:52:37
441,benguela,-12.5763,13.4055,296.17,77,100,1.66,AO,2023-02-08 01:52:37
442,callaway,30.153,-85.5699,291.18,76,40,1.54,US,2023-02-08 01:52:37
443,tornabe,15.75,-87.55,296.27,94,29,1.94,HN,2023-02-08 01:52:38
444,barras,-4.2444,-42.2944,295.69,96,100,0.97,BR,2023-02-08 01:52:38
445,wajima,37.4,136.9,277.53,100,75,1.03,JP,2023-02-08 01:52:38
446,dongsheng,39.8161,109.9776,268.23,50,100,4.24,CN,2023-02-08 01:52:39
447,fatwa,25.5167,85.3167,290.2,66,0,2.36,IN,2023-02-08 01:52:39
448,sibolga,1.7427,98.7792,300.01,60,100,0.62,ID,2023-02-08 01:52:39
449,warri,5.5167,5.75,298.73,83,7,1.46,NG,2023-02-08 01:52:39
450,yeppoon,-23.1333,150.7333,301.03,65,99,9.33,AU,2023-02-08 01:52:40
451,puerto narino,-3.7703,-70.3831,295.62,98,88,0.21,CO,2023-02-08 01:52:40
452,vao,-22.6667,167.4833,299.94,70,13,6.01,NC,2023-02-08 01:52:40
453,olafsvik,64.8945,-23.7142,270.66,57,100,12.37,IS,2023-02-08 01:52:41
454,kabare,-2.4683,28.8242,289.36,88,94,0.96,CD,2023-02-08 01:52:41
455,chokurdakh,70.6333,147.9167,235.0,99,100,1.62,RU,2023-02-08 01:52:41
456,marzuq,14.4,46.4667,289.47,55,6,2.11,YE,2023-02-08 01:52:41
457,vardo,70.3705,31.1107,272.14,80,8,9.77,NO,2023-02-08 01:49:57
458,finschhafen,-6.6024,147.8681,303.09,70,98,1.58,PG,2023-02-08 01:52:42
459,borkenes,68.774,16.1739,277.34,89,100,22.35,NO,2023-02-08 01:52:42
460,porto novo,6.4965,2.6036,298.6,85,95,2.15,BJ,2023-02-08 01:50:58
461,williamsport,41.2412,-77.0011,277.65,86,100,1.79,US,2023-02-08 01:48:53
462,tecpan,14.7623,-90.9947,285.87,76,0,1.15,GT,2023-02-08 01:52:42
463,salinas,36.6777,-121.6555,287.57,79,0,3.6,US,2023-02-08 01:48:14
464,nichinan,31.6,131.3667,285.97,73,82,2.43,JP,2023-02-08 01:52:43
465,bull savanna,17.8868,-77.5902,295.24,82,1,3.97,JM,2023-02-08 01:52:43
466,poum,-20.2333,164.0167,299.83,84,100,6.24,NC,2023-02-08 01:52:43
467,waipawa,-41.4122,175.5153,293.24,58,25,2.41,NZ,2023-02-08 01:52:44
468,andilamena,-17.0167,48.5833,291.95,90,100,2.1,MG,2023-02-08 01:52:44
469,rafaela,-31.2503,-61.4867,303.15,32,0,3.25,AR,2023-02-08 01:52:44
470,murgab,37.4966,61.9714,284.08,46,40,3.09,TM,2023-02-08 01:52:45
471,marawi,7.9986,124.2928,297.89,60,94,1.73,PH,2023-02-08 01:52:45
472,tucuman,-26.8241,-65.2226,298.15,88,20,2.57,AR,2023-02-08 01:52:45
473,codrington,-38.2667,141.9667,292.05,60,87,6.87,AU,2023-02-08 01:52:45
474,vangaindrano,-23.35,47.6,295.39,90,100,0.95,MG,2023-02-08 01:52:46
475,sayyan,15.1718,44.3244,283.74,65,11,0.47,YE,2023-02-08 01:52:46
476,bo phloi,14.3236,99.5161,301.39,50,68,1.38,TH,2023-02-08 01:52:46
477,acapulco,16.8634,-99.8901,297.88,76,1,2.26,MX,2023-02-08 01:51:48
478,saint-augustin,51.226,-58.6502,253.55,86,17,2.3,CA,2023-02-08 01:51:56
479,oktyabrskiy,54.4815,53.471,250.39,100,90,0.5,RU,2023-02-08 01:52:47
480,diamantino,-14.4086,-56.4461,295.48,90,85,0.92,BR,2023-02-08 01:52:47
481,ulladulla,-35.35,150.4667,292.91,83,100,1.79,AU,2023-02-08 01:52:47
482,la tebaida,4.4527,-75.7875,297.02,73,40,2.57,CO,2023-02-08 01:52:48
483,port moresby,-9.4431,147.1797,298.83,94,100,5.14,PG,2023-02-08 01:52:48
484,sabang,5.8933,95.3214,300.67,74,100,6.73,ID,2023-02-08 01:52:48
485,chernushka,56.5072,56.0766,247.76,100,98,1.18,RU,2023-02-08 01:52:49
486,nanma,36.1817,118.1583,276.61,39,100,3.48,CN,2023-02-08 01:52:49
487,tromso,69.6496,18.957,277.16,65,100,11.83,NO,2023-02-08 01:52:49
488,kununurra,-15.7667,128.7333,307.14,52,7,2.57,AU,2023-02-08 01:52:50
489,turbat,26.0023,63.044,290.86,45,32,0.49,PK,2023-02-08 01:52:50
490,honiara,-9.4333,159.95,302.33,73,100,3.05,SB,2023-02-08 01:48:15
491,filadelfia,39.9523,-75.1638,278.54,78,100,2.57,US,2023-02-08 01:47:53
492,wankaner,22.6167,70.9333,291.8,40,3,1.51,IN,2023-02-08 01:52:50
493,brigantine,39.4101,-74.3646,278.71,89,0,3.58,US,2023-02-08 01:52:51
494,tororo,0.693,34.1809,292.2,71,8,2.01,UG,2023-02-08 01:52:51
495,casablanca,33.5928,-7.6192,284.16,91,14,5.23,MA,2023-02-08 01:52:51
496,sawakin,19.1059,37.3321,294.02,60,94,6.43,SD,2023-02-08 01:52:51
497,beyneu,45.3167,55.2,270.61,71,100,10.33,KZ,2023-02-08 01:52:52
498,marsh harbour,26.5412,-77.0636,294.96,62,0,8.24,BS,2023-02-08 01:52:52
499,amapa,1.0,-52.0,295.37,99,100,0.91,BR,2023-02-08 01:52:52
500,brookings,44.3114,-96.7984,274.15,80,0,1.54,US,2023-02-08 01:52:52
501,maldonado,-34.6667,-54.9167,296.05,76,23,3.58,UY,2023-02-08 01:52:53
502,pitimbu,-7.4706,-34.8086,298.48,73,99,4.01,BR,2023-02-08 01:52:53
503,margate,51.3813,1.3862,277.45,67,89,1.15,GB,2023-02-08 01:52:53
504,nelson bay,-32.7167,152.15,300.43,63,60,6.71,AU,2023-02-08 01:52:54
505,omsukchan,62.5333,155.8,239.59,94,92,1.91,RU,2023-02-08 01:48:49
506,tocopilla,-22.092,-70.1979,296.48,77,15,2.57,CL,2023-02-08 01:52:54
507,monrovia,6.3005,-10.7969,297.02,91,97,2.96,LR,2023-02-08 01:51:28
508,general pico,-35.6566,-63.7568,300.35,27,51,3.36,AR,2023-02-08 01:52:54
509,yenagoa,4.9247,6.2642,298.62,86,33,1.71,NG,2023-02-08 01:52:55
510,hamilton,39.1834,-84.5333,285.06,90,100,4.63,US,2023-02-08 01:51:34
511,manggar,-2.8833,108.2667,300.89,75,100,2.43,ID,2023-02-08 01:52:55
512,almaznyy,48.0448,40.045,262.95,87,18,7.79,RU,2023-02-08 01:52:55
513,nanning,22.8167,108.3167,287.4,92,100,2.31,CN,2023-02-08 01:52:56
514,los algarrobos,8.5,-82.4333,301.38,54,0,3.09,PA,2023-02-08 01:52:56
515,havelock,34.8791,-76.9013,287.14,71,0,2.06,US,2023-02-08 01:52:56
516,kota,25.1833,75.8333,287.58,42,0,1.01,IN,2023-02-08 01:52:57
517,kassala,15.451,36.4,292.03,71,0,3.76,SD,2023-02-08 01:52:57
518,nalut,30.3333,10.85,286.42,58,98,4.71,LY,2023-02-08 01:52:57
519,kostino,58.9097,53.2691,260.97,93,100,3.75,RU,2023-02-08 01:52:57
520,katima mulilo,-17.5,24.2667,291.75,95,99,2.1,NA,2023-02-08 01:52:58
521,beibei,29.8256,106.4339,285.58,88,100,0.63,CN,2023-02-08 01:52:58
522,namibe,-15.1961,12.1522,294.27,75,95,2.09,AO,2023-02-08 01:51:40
523,xuddur,4.1213,43.8894,293.43,79,4,5.87,SO,2023-02-08 01:52:58
524,bousso,10.4795,16.7117,296.29,18,5,3.54,TD,2023-02-08 01:52:59
525,tautira,-17.7333,-149.15,299.87,61,5,2.11,PF,2023-02-08 01:52:59
526,bowen,-20.0167,148.2333,301.66,74,100,7.68,AU,2023-02-08 01:53:00
527,qasigiannguit,68.8193,-51.1922,246.29,98,100,0.99,GL,2023-02-08 01:53:00
528,el alto,-4.2714,-81.2147,297.96,79,93,3.8,PE,2023-02-08 01:53:00
529,mananjary,-21.2167,48.3333,296.01,91,94,2.01,MG,2023-02-08 01:53:00
530,saint-pierre,-21.3393,55.4781,297.97,78,0,2.06,RE,2023-02-08 01:53:01
531,velyka oleksandrivka,47.3197,33.3037,268.15,65,100,8.16,UA,2023-02-08 01:53:01
532,emba,48.8264,58.1442,258.55,89,86,6.37,KZ,2023-02-08 01:53:01
533,paso de los toros,-32.8167,-56.5167,299.79,34,0,3.63,UY,2023-02-08 01:53:02
534,la ronge,55.1001,-105.2842,272.29,47,0,3.6,CA,2023-02-08 01:53:03
535,guarapuava,-25.3953,-51.4581,288.65,61,19,0.4,BR,2023-02-08 01:53:04
536,pundaguitan,6.3711,126.1689,299.41,74,95,3.01,PH,2023-02-08 01:53:06
537,komsomolskiy,40.4272,71.7189,273.55,80,99,3.09,UZ,2023-02-08 01:53:07
538,fairbanks,64.8378,-147.7164,259.6,82,40,0.0,US,2023-02-08 01:52:16
539,guasca,4.866,-73.8775,284.35,92,47,1.51,CO,2023-02-08 01:53:08
540,katherine,-14.4667,132.2667,305.33,58,0,2.57,AU,2023-02-08 01:53:09
